Inspection_ID,License,DBA_Name,AKA_Name,Facility_Type,Risk,Address,City,State,Zip,Latitude,Longitude,Inspection_Date,Inspection_Type,Results,criticalFound,pass_flag,fail_flag,tsne_x,tsne_y,is_test,area_num,community_name
2608427,2215704.0,NORTH LAWNDALE YMCA,NORTH LAWNDALE YMCA,Daycare Above and Under 2 Years,Risk 1 (High),3449 W ARTHINGTON ST ,CHICAGO,IL,60624.0,41.8698698475562,-87.7125947389378,2024-12-04,Canvass,Pass,0.0,1.0,0.0,-59.514317,-31.133396,True,29.0,NORTH LAWNDALE
2608429,2749647.0,LEGENDS CHICKEN & FISH CAFE,LEGENDS CHICKEN & FISH,Restaurant,Risk 2 (Medium),303 W 79TH ST,CHICAGO,IL,60620.0,41.7507112587109,-87.6320192852334,2024-12-04,Canvass Re-Inspection,Pass,0.0,1.0,0.0,4.4427414,-10.327835,True,44.0,CHATHAM
2608403,2895873.0,AAA MAXWELL STREET EXPRESS,MAXWELL STREET EXPRESS,Restaurant,Risk 1 (High),7901 S WENTWORTH AVE,CHICAGO,IL,60620.0,41.7507791861438,-87.6291551999602,2024-12-04,Complaint,Fail,1.0,0.0,1.0,60.927155,24.743689,True,44.0,CHATHAM
2608400,1980707.0,POLARIS CHARTER ACADEMY,POLARIS CHARTER ACADEMY,School,Risk 1 (High),620 N Sawyer AVE ,CHICAGO,IL,60624.0,41.8925599831786,-87.7078335192439,2024-12-04,Canvass,Pass,0.0,1.0,0.0,-25.498589,-36.462666,True,23.0,HUMBOLDT PARK
2608380,3002042.0,"CICERO ONE, LTD.","CICERO ONE, LTD.",Grocery Store,Risk 2 (Medium),4801 W CHICAGO AVE ,CHICAGO,IL,60651.0,41.8948927214182,-87.7459270239488,2024-12-03,License,Pass,0.0,1.0,0.0,9.936499,-9.562411,True,25.0,AUSTIN
2608378,2684170.0,Babas Halal,Babas Halal,Restaurant,Risk 1 (High),7901 S DAMEN AVE,CHICAGO,IL,60620.0,41.7501893422934,-87.6729858397721,2024-12-03,Complaint,Fail,1.0,0.0,1.0,74.87702,3.413066,True,71.0,AUBURN GRESHAM
2608373,2665084.0,SANDO STREET,SANDO STREET,Restaurant,Risk 1 (High),1547 N ASHLAND AVE ,CHICAGO,IL,60622.0,41.9102189523446,-87.6675345374835,2024-12-03,Canvass,Fail,1.0,0.0,1.0,45.78953,-23.941422,True,24.0,WEST TOWN
2608366,2997364.0,DUNKIN',DUNKIN',Restaurant,Risk 2 (Medium),2503 S DR MARTIN LUTHER KING JR DR ,CHICAGO,IL,60616.0,41.847420527562,-87.6172118253888,2024-12-03,License,Pass,0.0,1.0,0.0,20.29975,-47.51372,True,33.0,NEAR SOUTH SIDE
2608367,2671368.0,SUSHI +,SHABUPLUS ROTAY HOT POT,Restaurant,Risk 1 (High),1352 N MILWAUKEE AVE ,CHICAGO,IL,60622.0,41.9063247252023,-87.6713510800332,2024-12-03,Canvass,Pass,0.0,1.0,0.0,0.5437262,-46.248905,True,24.0,WEST TOWN
2608364,2988535.0,SMOOTHIE KING,SMOOTHIE KING,Restaurant,Risk 2 (Medium),3479 N BROADWAY ,CHICAGO,IL,60657.0,41.9454077107992,-87.6459284098484,2024-12-03,License,Fail,1.0,0.0,1.0,-6.8338017,46.69653,True,6.0,LAKE VIEW
2608362,2712674.0,"GYRO GRILL MG, INC",GYRO GRILL,Restaurant,Risk 1 (High),3660 W 111TH ST ,CHICAGO,IL,60655.0,41.6914854716219,-87.713030088589,2024-12-03,Complaint,Pass,0.0,1.0,0.0,-65.9964,-30.00999,True,74.0,MOUNT GREENWOOD
2608361,3002257.0,ALBUX MARKET,ALBUX MARKET,Grocery Store,Risk 3 (Low),10345 S HALSTED ST ,CHICAGO,IL,60628.0,41.7055844579909,-87.6426469367646,2024-12-03,License,Pass w/ Conditions,0.0,0.0,0.0,0.42741007,26.745459,True,49.0,ROSELAND
2608338,31782.0,CROATIAN CULTURAL CENTER OF CHICAGO,CROATIAN CULTURAL CENTER OF CHICAGO,Restaurant,Risk 1 (High),2845 W DEVON AVE,CHICAGO,IL,60659.0,41.9974197150081,-87.7014226815792,2024-12-03,Canvass Re-Inspection,Pass,0.0,1.0,0.0,-24.582176,75.4783,True,2.0,WEST RIDGE
2608325,2993538.0,CRADLE 2 CREATIONS LEARNING CENTER,CRADLE 2 CREATIONS LEARNING CENTER,Children's Services Facility,Risk 1 (High),10622-10624 S HALSTED ST ,CHICAGO,IL,60628.0,41.7007443900248,-87.6427883850186,2024-12-03,License,Fail,1.0,0.0,1.0,26.377876,3.8960004,True,73.0,WASHINGTON HEIGHTS
2608321,2929998.0,POPEYE'S LOUISIANA KITCHEN,POPEYE'S LOUISIANA KITCHEN,Restaurant,Risk 1 (High),10331 S KEDZIE AVE,CHICAGO,IL,60655.0,41.7052084894931,-87.7011632562526,2024-12-03,Complaint,Pass,0.0,1.0,0.0,-10.63225,-27.484823,True,74.0,MOUNT GREENWOOD
2608309,17085.0,RUDY'S FOOD & LIQUOR,RUDY'S FOOD & LIQUOR,Grocery Store,Risk 3 (Low),1558 W 69TH ST,CHICAGO,IL,60636.0,41.768662295987,-87.6638416537146,2024-12-03,Complaint,Fail,1.0,0.0,1.0,1.5825686,52.51257,True,67.0,WEST ENGLEWOOD
2608304,1490824.0,GUERREROS PIZZA INC,GUERREROS PIZZA,Restaurant,Risk 1 (High),2024 S CALIFORNIA AVE ,CHICAGO,IL,60608.0,41.8538287295256,-87.6956563986424,2024-12-03,Canvass Re-Inspection,Pass,0.0,1.0,0.0,-18.200998,41.3346,True,30.0,SOUTH LAWNDALE
2608285,2224746.0,UCAN ACADEMY AND HIGH SCHOOL,UCAN ACADEMY AND HIGH SCHOOL,School,Risk 2 (Medium),3110 W GRAND AVE ,CHICAGO,IL,60622.0,41.8975645991552,-87.7044589821482,2024-12-03,Canvass,Fail,1.0,0.0,1.0,73.20312,14.944122,True,23.0,HUMBOLDT PARK
2608283,29051.0,ERICSON ELEMENTARY SCHOOL,ERICSON ELEMENTARY SCHOOL,School,Risk 1 (High),3600 W FIFTH AVE ,CHICAGO,IL,60624.0,41.8757619056884,-87.7158457254019,2024-12-03,Canvass,Fail,1.0,0.0,1.0,-14.793854,60.181633,True,27.0,EAST GARFIELD PARK
2608281,2766627.0,WAFFLE PANCAKE HOUSE INC,WAFFLE PANCAKE HOUSE,Restaurant,Risk 1 (High),3458 W 111TH ST,CHICAGO,IL,60655.0,41.6915547731753,-87.7081006484005,2024-12-03,Canvass,Pass,0.0,1.0,0.0,-20.390944,-27.308155,True,74.0,MOUNT GREENWOOD
2608279,28479.0,WHITE CASTLE #53,WHITE CASTLE #53,Restaurant,Risk 2 (Medium),1400 W 79TH ST ,CHICAGO,IL,60620.0,41.7505349812582,-87.6586520622897,2024-12-03,Canvass Re-Inspection,Pass,0.0,1.0,0.0,-25.340914,75.1644,True,71.0,AUBURN GRESHAM
2608275,3002287.0,SANDWICHON CAFE,SANDWICHON CAFE,Restaurant,Risk 1 (High),2651 N HARLEM AVE ,CHICAGO,IL,60707.0,41.9286584525103,-87.8062730532336,2024-12-03,License,Fail,1.0,0.0,1.0,35.631893,6.776582,True,18.0,MONTCLARE
2608261,2247208.0,J & J FISH AND CHICKEN,JJ FISH,Restaurant,Risk 2 (Medium),8300 S HOLLAND RD,CHICAGO,IL,60620.0,41.7434273330566,-87.6321811320245,2024-12-02,Complaint,Fail,1.0,0.0,1.0,61.750156,21.994612,True,44.0,CHATHAM
2608255,2431903.0,OAATO FOODS INC.,OAATO FOODS,Restaurant,Risk 1 (High),7118 N CLARK ST,CHICAGO,IL,60626.0,42.0120102335511,-87.6746862866216,2024-12-02,Canvass,Pass,0.0,1.0,0.0,-18.660004,-10.594443,True,1.0,ROGERS PARK
2608252,2912463.0,VARIETALE BAGELS & COFFEE,VARIETALE BAGELS & COFFEE,Restaurant,Risk 1 (High),6206 N BROADWAY ,CHICAGO,IL,60660.0,41.9948051667395,-87.6605603134528,2024-12-02,Canvass Re-Inspection,Pass,0.0,1.0,0.0,-53.99496,-25.144417,True,77.0,EDGEWATER
2608241,2369189.0,TESFA ETHIOPIAN CUISINE,TESFA ETHIOPIAN CUISINE,Restaurant,Risk 1 (High),5352 N BROADWAY ,CHICAGO,IL,60640.0,41.9797075163928,-87.6601074596661,2024-12-02,Complaint Re-Inspection,Pass,0.0,1.0,0.0,-71.348274,5.4235196,True,77.0,EDGEWATER
2608236,1303855.0,TAQUERIA EL CHORRITO,TAQUERIA EL CHORRITO,Restaurant,Risk 1 (High),6404 N CLARK ST,CHICAGO,IL,60626.0,41.9982008078141,-87.6707884796761,2024-12-02,Canvass,Pass,0.0,1.0,0.0,-2.1781294,-18.234802,True,1.0,ROGERS PARK
2608235,2749647.0,LEGENDS CHICKEN & FISH CAFE,LEGENDS CHICKEN & FISH,Restaurant,Risk 2 (Medium),303 W 79TH ST,CHICAGO,IL,60620.0,41.7507112587109,-87.6320192852334,2024-12-02,Canvass Re-Inspection,Fail,1.0,0.0,1.0,63.308094,20.808805,True,44.0,CHATHAM
2608229,2646487.0,CAPTAIN HOOKS FISH & CHICKEN,CAPTAIN HOOKS FISH & CHICKEN,Restaurant,Risk 2 (Medium),343 E 103RD ST ,CHICAGO,IL,60628.0,41.7071922270379,-87.6145004650648,2024-12-02,Canvass Re-Inspection,Pass,0.0,1.0,0.0,-58.645332,12.799344,True,49.0,ROSELAND
2608225,2997029.0,LITO'S TACO AND EMPANADA HOUSE,LITO'S TACO AND EMPANADA HOUSE,Restaurant,Risk 1 (High),2460 N CLARK ST ,CHICAGO,IL,60614.0,41.9270667547097,-87.641529677542,2024-12-02,License,Pass,0.0,1.0,0.0,-24.513533,-5.8779173,True,7.0,LINCOLN PARK
2608212,2882631.0,KING FISH AND CHICKEN FOOD MART,KING FISH AND CHICKEN FOOD MART,Grocery Store,Risk 2 (Medium),8101 S ASHLAND AVE,CHICAGO,IL,60620.0,41.746625624889,-87.6631962229071,2024-12-02,Canvass,Pass w/ Conditions,0.0,0.0,0.0,38.903225,35.09067,True,71.0,AUBURN GRESHAM
2608208,1842767.0,FOLKLORE,FOLKLORE,Restaurant,Risk 1 (High),2100-2102 W DIVISION ST ,CHICAGO,IL,60622.0,41.9032545150184,-87.6798250453467,2024-12-02,Canvass,Pass,0.0,1.0,0.0,-22.6402,-58.786564,True,24.0,WEST TOWN
2608206,2876991.0,THE COFFEE STUDIO,THE COFFEE STUDIO,Restaurant,Risk 2 (Medium),5628 N CLARK ST ,CHICAGO,IL,60660.0,41.9843848248921,-87.669099313872,2024-12-02,Canvass Re-Inspection,Fail,1.0,0.0,1.0,-4.5793753,20.290483,True,77.0,EDGEWATER
2608204,29497.0,THE 3RD COAST,THE 3RD COAST,Restaurant,Risk 1 (High),1260 N DEARBORN ST ,CHICAGO,IL,60610.0,41.9056511434153,-87.630183757229,2024-12-02,Complaint,Pass w/ Conditions,0.0,0.0,0.0,35.674976,9.226391,True,8.0,NEAR NORTH SIDE
2608200,2753883.0,GOURMET DELI & SUBS,GOURMET DELI & SUBS,Restaurant,Risk 2 (Medium),12201-12209 S HALSTED ST ,CHICAGO,IL,60628.0,41.6722695974314,-87.6415764808411,2024-12-02,Canvass Re-Inspection,Pass w/ Conditions,0.0,0.0,0.0,66.8126,22.649609,True,53.0,WEST PULLMAN
2608190,2608946.0,POPS ITALIAN BEEF TWO,POPS ITALIAN BEEF TWO,Restaurant,Risk 1 (High),10337 S KEDZIE AVE ,CHICAGO,IL,60655.0,41.7050324842898,-87.7011601257365,2024-12-02,Complaint Re-Inspection,Pass,0.0,1.0,0.0,-31.049974,-40.073273,True,74.0,MOUNT GREENWOOD
2608189,2358596.0,"RACHEL'S LEARNING CENTER, LTD.",RACHEL'S LEARNING CENTER,Children's Services Facility,Risk 1 (High),5242-5244 W NORTH AVE ,CHICAGO,IL,60639.0,41.9095907009452,-87.7574042941454,2024-12-02,License Re-Inspection,Pass,0.0,1.0,0.0,-56.023235,6.03866,True,25.0,AUSTIN
2608186,2621145.0,ITALIAN FIESTA PIZZERIA,ITALIAN FIESTA PIZZERIA,Restaurant,Risk 1 (High),1306 E 47TH ST ,CHICAGO,IL,60653.0,41.8097752938091,-87.5947365237649,2024-11-29,Canvass Re-Inspection,Pass,0.0,1.0,0.0,-63.63963,-32.590237,True,39.0,KENWOOD
2608182,2600678.0,MCDONALD'S,MCDONALD'S,Restaurant,Risk 2 (Medium),3200 W ROOSEVELT RD ,CHICAGO,IL,60624.0,41.8665138881923,-87.7057335990255,2024-11-29,Complaint,Pass,0.0,1.0,0.0,-11.444315,-20.302013,True,29.0,NORTH LAWNDALE
2608174,2121030.0,FREMONT BAR,WELCOME TO THE FARM,Restaurant,Risk 2 (Medium),15 W ILLINOIS ST,CHICAGO,IL,60654.0,41.8907435194424,-87.6286700601906,2024-11-29,Canvass,Fail,1.0,0.0,1.0,35.64804,7.6573453,True,8.0,NEAR NORTH SIDE
2608169,3001832.0,ONE WAY FOOD MART,ONE WAY FOOD MART,Grocery Store,Risk 2 (Medium),3022 W MADISON ,CHICAGO,IL,60612.0,41.881126474537,-87.7022366178726,2024-11-29,License,Pass w/ Conditions,0.0,0.0,0.0,31.278294,16.544708,True,27.0,EAST GARFIELD PARK
2608164,2208932.0,RML CHICAGO,RML CHICAGO,Hospital,Risk 1 (High),3435 W VAN BUREN ,CHICAGO,IL,60624.0,41.8753290621097,-87.7121470280514,2024-11-29,Canvass,Pass,0.0,1.0,0.0,-7.6147118,-41.69852,True,27.0,EAST GARFIELD PARK
2608165,2564001.0,HON KEE BBQ & SEAFOOD RESTAURANT INC,HON KEE BBQ & SEAFOOD RESTARUANT,Restaurant,Risk 1 (High),5009 N WINTHROP AVE ,CHICAGO,IL,60640.0,41.9735942872407,-87.6575948778682,2024-11-29,Canvass Re-Inspection,Pass,0.0,1.0,0.0,26.842882,-22.69461,True,3.0,UPTOWN
2608153,2929721.0,LOS 3 COMPADRES DE GUERRERO LLC,LOS 3 COMPADRES DE GUERRERO,Restaurant,Risk 1 (High),912 N WESTERN AVE ,CHICAGO,IL,60622.0,41.8980141638199,-87.6870472678726,2024-11-27,Canvass Re-Inspection,Pass,0.0,1.0,0.0,-71.035484,-35.076256,True,24.0,WEST TOWN
2608150,2709285.0,MASALA'S,MASALA'S,Grocery Store,Risk 3 (Low),2229 W TAYLOR ST,CHICAGO,IL,60612.0,41.8689207970879,-87.6823829644249,2024-11-27,Canvass Re-Inspection,Pass,0.0,1.0,0.0,-23.47737,75.08377,True,28.0,NEAR WEST SIDE
2608152,2988676.0,601 W COMPANIES,601 W COMPANIES,Restaurant,Risk 1 (High),200 E RANDOLPH ST ,CHICAGO,IL,60601.0,41.8846320757672,-87.6222479910888,2024-11-27,License,Fail,1.0,0.0,1.0,61.79556,7.663343,True,32.0,LOOP
2608149,2192615.0,RAW,RAW,Restaurant,Risk 2 (Medium),51 W HURON ST ,CHICAGO,IL,60654.0,41.8947395822407,-87.6300448568165,2024-11-27,Canvass Re-Inspection,Pass w/ Conditions,0.0,0.0,0.0,72.61945,-4.025779,True,8.0,NEAR NORTH SIDE
2608148,2398495.0,JERSEY MIKE'S SUBS,JERSEY MIKE'S,Restaurant,Risk 1 (High),203 E OHIO ST,CHICAGO,IL,60611.0,41.8924529079441,-87.6224908327819,2024-11-27,Canvass,Pass,0.0,1.0,0.0,49.162773,-32.34605,True,8.0,NEAR NORTH SIDE
2608147,1546696.0,BEVERLY BAKERY INC,BEVERLY BAKERY INC,Bakery,Risk 1 (High),10528 S WESTERN AVE ,CHICAGO,IL,60643.0,41.7018453799092,-87.6816239603147,2024-11-27,Complaint,Pass w/ Conditions,0.0,0.0,0.0,63.00585,-2.4124057,True,72.0,BEVERLY
2608146,2698419.0,DUNKIN DONUTS,DUNKIN DONUTS,Restaurant,Risk 2 (Medium),201 W MADISON ST ,CHICAGO,IL,60606.0,41.8818354659097,-87.6338973886012,2024-11-27,Canvass,Pass,0.0,1.0,0.0,16.357265,3.5273578,True,32.0,LOOP
2608144,31563.0,LE PARIS BAKERY,PANADERIA LE PARIS,Bakery,Risk 1 (High),3939 W 31ST ST,CHICAGO,IL,60623.0,41.8367870003082,-87.723441328719,2024-11-27,Canvass,Pass,0.0,1.0,0.0,-18.863424,-62.462723,True,30.0,SOUTH LAWNDALE
2608145,1868848.0,MANDELA AFRICAN GROCERY,MANDELA AFRICAN GROCERY,Grocery Store,Risk 2 (Medium),722 E 79TH ST,CHICAGO,IL,60619.0,41.7513692700707,-87.6066770714611,2024-11-27,Canvass,Pass w/ Conditions,0.0,0.0,0.0,28.31693,-4.0932193,True,69.0,GREATER GRAND CROSSING
2608142,1491413.0,BURRITO BEACH # 8,BURRITO BEACH,Restaurant,Risk 1 (High),200 E OHIO ST,CHICAGO,IL,60611.0,41.8926712906856,-87.6225722024813,2024-11-27,Canvass,Pass,0.0,1.0,0.0,-49.210594,-19.703222,True,8.0,NEAR NORTH SIDE
2608140,1045468.0,MC DONALD'S,MC DONALD'S,Restaurant,Risk 2 (Medium),6737 S PULASKI RD ,CHICAGO,IL,60629.0,41.7702902639118,-87.7224013240254,2024-11-27,Canvass,Pass w/ Conditions,0.0,0.0,0.0,42.70825,38.11529,True,65.0,WEST LAWN
2608141,2664977.0,PETE'S,75th food & meat market,Grocery Store,Risk 2 (Medium),656 E 75TH ST ,CHICAGO,IL,60619.0,41.7586451534284,-87.6079895073858,2024-11-27,Canvass,Pass,0.0,1.0,0.0,-5.453175,-14.934609,True,69.0,GREATER GRAND CROSSING
2608138,2609157.0,BEATNIK,BEATNIK,Restaurant,Risk 1 (High),1604-1608 W CHICAGO AVE ,CHICAGO,IL,60622.0,41.8961794099124,-87.6675254453063,2024-11-27,Canvass,Fail,1.0,0.0,1.0,-5.6649895,48.155224,True,24.0,WEST TOWN
2608136,23128.0,STARBUCKS COFFEE #2401,STARBUCKS COFFEE #2401,Restaurant,Risk 2 (Medium),750 N FRANKLIN ST,CHICAGO,IL,60654.0,41.8963175877825,-87.6358402536683,2024-11-27,Canvass,Fail,1.0,0.0,1.0,74.66362,13.190033,True,8.0,NEAR NORTH SIDE
2608131,2943828.0,WESTERN JERK,WESTERN JERK,Restaurant,Risk 1 (High),1334 W 87TH ST ,CHICAGO,IL,60620.0,41.7359858322433,-87.6572077624859,2024-11-27,License,Fail,1.0,0.0,1.0,-2.4165173,26.317635,True,71.0,AUBURN GRESHAM
2608132,2516847.0,S.K.Y.,S.K.Y.,Restaurant,Risk 1 (High),1239 W 18TH ST,CHICAGO,IL,60608.0,41.8578177348926,-87.6579610268159,2024-11-27,Canvass,Pass w/ Conditions,0.0,0.0,0.0,24.93411,36.149254,True,31.0,LOWER WEST SIDE
2608135,1091886.0,Supermercado Santos,Supermercado Santos,Grocery Store,Risk 1 (High),4045-4047 W 31ST ST,CHICAGO,IL,60623.0,41.8367499607579,-87.726132656829,2024-11-27,Canvass,Pass w/ Conditions,0.0,0.0,0.0,74.198524,6.0810766,True,30.0,SOUTH LAWNDALE
2608129,1489064.0,LETIZA'S NATURAL BAKERY / ENOTECA ROMA,LETIZA'S NATURAL BAKERY / ENOTECA ROMA,Restaurant,Risk 1 (High),2144-2146 W DIVISION ST ,CHICAGO,IL,60622.0,41.9032267556001,-87.6814912222404,2024-11-27,Canvass,Pass,0.0,1.0,0.0,-25.99842,-34.054882,True,24.0,WEST TOWN
2608122,2757921.0,ALYNIA ZUSHI & KARAOKE LOUNGE,ALYNIA ZUSHI & KARAOKE LOUNGE,Restaurant,Risk 1 (High),3051 S ARCHER AVE ,CHICAGO,IL,60608.0,41.8391347680221,-87.6628943758507,2024-11-26,Canvass Re-Inspection,Pass,0.0,1.0,0.0,19.44023,-45.7304,True,60.0,BRIDGEPORT
2608120,2924897.0,BONCHON,BONCHON,Restaurant,Risk 1 (High),1732 W DIVISION ST ,CHICAGO,IL,60622.0,41.9033920617297,-87.6713766838127,2024-11-26,Canvass Re-Inspection,Fail,1.0,0.0,1.0,-13.709076,25.011236,True,24.0,WEST TOWN
2608117,2868125.0,HALE MCDONALD'S,HALE MCDONALD'S,Restaurant,Risk 2 (Medium),2525 S DR MARTIN LUTHER KING JR DR ,CHICAGO,IL,60616.0,41.8467666109193,-87.6171757775497,2024-11-26,Canvass Re-Inspection,Pass,0.0,1.0,0.0,10.003591,1.3915282,True,33.0,NEAR SOUTH SIDE
2608116,24596.0,"CITY-LIFE, LTD.","CITY-LIFE, LTD.",Restaurant,Risk 2 (Medium),712 E 83RD ST,CHICAGO,IL,60619.0,41.7440448025475,-87.6068899876458,2024-11-26,Canvass,Pass,0.0,1.0,0.0,-23.231462,61.172497,True,44.0,CHATHAM
2608113,2851420.0,DRW COLLEGE PREP,DRW COLLEGE PREP,School,Risk 1 (High),931 S HOMAN AVE ,CHICAGO,IL,60624.0,41.8693149650242,-87.7104899612539,2024-11-26,Canvass Re-Inspection,Pass,0.0,1.0,0.0,-32.014996,-47.64798,True,29.0,NORTH LAWNDALE
2608112,0.0,PEPPER PALACE,PEPPER PALACE,Navy Pier Kiosk,Risk 3 (Low),600 E GRAND AVE,CHICAGO,IL,60611.0,41.8920941368618,-87.6115698839466,2024-11-26,Complaint,Fail,1.0,0.0,1.0,62.70576,36.768337,True,8.0,NEAR NORTH SIDE
2608109,2918743.0,DOMINOS,DOMINOS,Restaurant,Risk 2 (Medium),509 N ORLEANS ST ,CHICAGO,IL,60654.0,41.8910754076385,-87.6368726771879,2024-11-26,Canvass,Pass w/ Conditions,0.0,0.0,0.0,71.88016,28.64357,True,8.0,NEAR NORTH SIDE
2608106,2141717.0,"STATION RESTAURANT AND BAR, VINNY'S PIZZA BAR, BOO","STATION RESTAURANT AND BAR, VINNY'S PIZZA BAR, BOO",Restaurant,Risk 1 (High),120 N CANAL ST ,CHICAGO,IL,60606.0,41.8838717366213,-87.6399401606997,2024-11-26,Canvass,Pass w/ Conditions,0.0,0.0,0.0,51.11716,1.4406198,True,28.0,NEAR WEST SIDE
2608101,2796870.0,RAVENSWOOD SENIOR LIVING,RAVENSWOOD SENIOR LIVING,Long Term Care,Risk 1 (High),1922 W SUNNYSIDE AVE ,CHICAGO,IL,60640.0,41.9634118413852,-87.6770505229681,2024-11-26,Canvass,Pass w/ Conditions,0.0,0.0,0.0,66.63369,24.10691,True,4.0,LINCOLN SQUARE
2608102,2896102.0,TACO SUR BIRRERIA,TACO SUR BIRRERIA,Restaurant,Risk 1 (High),3059 S PULASKI RD ,CHICAGO,IL,60623.0,41.8369759831184,-87.7242056807066,2024-11-26,Canvass,Pass w/ Conditions,0.0,0.0,0.0,68.59232,-2.3589385,True,30.0,SOUTH LAWNDALE
2608099,2997124.0,47TH STREET SUMMERTIME CANTINA,47TH STREET SUMMERTIME CANTINA,Restaurant,Risk 1 (High),1347 - 1349 W 47TH ST ,CHICAGO,IL,60609.0,41.808566785908,-87.6594980084135,2024-11-26,License,Pass,0.0,1.0,0.0,-90.693634,-15.729958,True,61.0,NEW CITY
2608098,2934259.0,CITY SKYLINE CHICAGO,CITY SKYLINE CHICAGO,Restaurant,Risk 2 (Medium),4755 N LINCOLN AVE ,CHICAGO,IL,60625.0,41.9681025378943,-87.688073118404,2024-11-26,Complaint,Pass w/ Conditions,0.0,0.0,0.0,3.9964216,-13.870379,True,4.0,LINCOLN SQUARE
2608096,2938635.0,UPTOWN RESTAURANT,UPTOWN PIZZA & BBQ,Restaurant,Risk 1 (High),1031 W WILSON AVE,CHICAGO,IL,60640.0,41.9653066026845,-87.6561179693684,2024-11-26,Canvass Re-Inspection,Fail,1.0,0.0,1.0,13.76977,-21.026424,True,3.0,UPTOWN
2608095,29201.0,SHERIDAN M. MAGNET,MARK SHERIDAN MAGNET SCHOOL,School,Risk 1 (High),533 W 27th St (2700S) ,CHICAGO,IL,60616.0,41.8443729283673,-87.641313993371,2024-11-26,Canvass Re-Inspection,Fail,1.0,0.0,1.0,-4.6253505,20.21728,True,60.0,BRIDGEPORT
2608092,1953757.0,BLACK HOLE,BLACK HOLE,Restaurant,Risk 1 (High),1942 W DIVISION ST ,CHICAGO,IL,60622.0,41.9033119840825,-87.676573371066,2024-11-26,Canvass,Pass,0.0,1.0,0.0,-6.905355,-54.027996,True,24.0,WEST TOWN
2608088,2868609.0,BIG TIME FOOD & DELI,BIG TIME FOOD & DELI,Grocery Store,Risk 1 (High),737 S PULASKI RD ,CHICAGO,IL,60624.0,41.8715317849435,-87.7252217460104,2024-11-26,Canvass,Fail,1.0,0.0,1.0,21.81252,1.1635785,True,26.0,WEST GARFIELD PARK
2608084,2495888.0,BARRY'S BOOTCAMP,BARRY'S BOOTCAMP,GYM STORE,Risk 2 (Medium),1-9 W ERIE ST ,CHICAGO,IL,60654.0,41.8939610197837,-87.6282094151009,2024-11-26,Canvass,Pass w/ Conditions,0.0,0.0,0.0,68.29636,32.043518,True,8.0,NEAR NORTH SIDE
2608081,3002060.0,TROY FOOD MART,TROY FOOD MART,Grocery Store,Risk 3 (Low),3142 W CERMAK RD ,,IL,60623.0,41.8518859623224,-87.7044649036697,2024-11-26,License,Pass,0.0,1.0,0.0,4.1138287,28.070446,True,30.0,SOUTH LAWNDALE
2608077,1490824.0,GUERREROS PIZZA INC,GUERREROS PIZZA,Restaurant,Risk 1 (High),2024 S CALIFORNIA AVE ,CHICAGO,IL,60608.0,41.8538287295256,-87.6956563986424,2024-11-26,Canvass,Fail,1.0,0.0,1.0,-18.153124,41.490578,True,30.0,SOUTH LAWNDALE
2608079,2998021.0,CASA TULUM,CASA TULUM,Restaurant,Risk 1 (High),1700 S MICHIGAN AVE ,CHICAGO,IL,60616.0,41.8589963001468,-87.624105669785,2024-11-26,License,Fail,1.0,0.0,1.0,8.877821,48.21575,True,33.0,NEAR SOUTH SIDE
2608073,2583423.0,LOST LARSON,LOST LARSON,Restaurant,Risk 1 (High),5318 N CLARK ST ,CHICAGO,IL,60640.0,41.9786845400567,-87.6684667325925,2024-11-26,Canvass,Fail,1.0,0.0,1.0,9.027265,70.68525,True,77.0,EDGEWATER
2608072,2535859.0,HERO COFFEE,HERO COFFEE,Restaurant,Risk 2 (Medium),439 S DEARBORN ST ,CHICAGO,IL,60605.0,41.8759666546711,-87.6291027631683,2024-11-26,Canvass,Pass w/ Conditions,0.0,0.0,0.0,-15.883164,3.0180428,True,32.0,LOOP
2608068,39365.0,UNCLE MIKE'S PLACE,UNCLE MIKE'S PLACE,Restaurant,Risk 1 (High),1700 W GRAND AVE ,CHICAGO,IL,60622.0,41.8910528570188,-87.6696235387434,2024-11-26,Canvass,Pass,0.0,1.0,0.0,-33.856823,-35.29478,True,24.0,WEST TOWN
2608067,3002025.0,KIMCHI POP THREE BY CHEF SON,KIMCHI POP THREE BY CHEF SON,Restaurant,Risk 1 (High),6930 N GLENWOOD AVE ,CHICAGO,IL,60626.0,42.0076587584795,-87.6663171991003,2024-11-26,License,Pass,0.0,1.0,0.0,-54.79855,6.768819,True,1.0,ROGERS PARK
2608065,2501826.0,KOMOREBI,KOMOREBI,Restaurant,Risk 1 (High),1324 N MILWAUKEE AVE ,CHICAGO,IL,60622.0,41.9057095692575,-87.6703908409687,2024-11-26,Canvass,Pass,0.0,1.0,0.0,-9.044912,-61.541203,True,24.0,WEST TOWN
2608063,2206654.0,THE HARTWELL,THE HARTWELL,Long Term Care,Risk 1 (High),5520 N PAULINA ST ,CHICAGO,IL,60640.0,41.9823395428003,-87.6723844775638,2024-11-26,Canvass,Pass,0.0,1.0,0.0,0.021732826,-55.80984,True,77.0,EDGEWATER
2608062,2252998.0,7 ELEVEN #33854B,7-ELEVEN,Grocery Store,Risk 2 (Medium),645 N STATE ST ,CHICAGO,IL,60654.0,41.8938190484226,-87.6279782977746,2024-11-26,Canvass Re-Inspection,Pass,0.0,1.0,0.0,-20.33624,-37.853897,True,8.0,NEAR NORTH SIDE
2608061,2215831.0,"RACHEL'S LEARNING CENTERS, LTD.","RACHEL'S LEARNING CENTERS, LTD.",Daycare Above and Under 2 Years,Risk 1 (High),3430-3434 W ROOSEVELT RD,CHICAGO,IL,60624.0,41.8664439902475,-87.711802378964,2024-11-26,License,Pass,0.0,1.0,0.0,-64.39932,-3.1859674,True,29.0,NORTH LAWNDALE
2608057,18779.0,The Original Pancake House,The Original Pancake House,Restaurant,Risk 1 (High),22 E BELLEVUE PL,CHICAGO,IL,60611.0,41.9016820759735,-87.6274419314574,2024-11-26,Canvass,Fail,1.0,0.0,1.0,70.09401,21.375221,True,8.0,NEAR NORTH SIDE
2608058,49348.0,DUNKIN DONUTS,DUNKIN DONUTS,Restaurant,Risk 2 (Medium),6336 W NORTH AVE,CHICAGO,IL,60639.0,41.9092584326448,-87.7849219948027,2024-11-26,Canvass,Fail,1.0,0.0,1.0,-18.10482,3.526829,True,25.0,AUSTIN
2608054,2808131.0,HUMBOLDT HAUS DELI & LIQUOR,HUMBOLDT HAUS DELI & LIQUOR,Restaurant,Risk 1 (High),2954-2958 W NORTH AVE ,CHICAGO,IL,60647.0,41.9102865640661,-87.701290371991,2024-11-26,Canvass,Pass w/ Conditions,0.0,0.0,0.0,53.97696,14.44455,True,24.0,WEST TOWN
2608070,2803076.0,TASTY CHICKEN & FISH FOOD MART,TASTY CHICKEN & FISH FOOD MART,Grocery Store,Risk 2 (Medium),1120-1122 W 95TH ST,CHICAGO,IL,60643.0,41.7214660882639,-87.6515878591621,2024-11-26,Complaint,Pass w/ Conditions,0.0,0.0,0.0,28.700788,14.709877,True,73.0,WASHINGTON HEIGHTS
2608052,2196316.0,BREAKFAST HOUSE RESTAURANT INC.,BREAKFAST HOUSE RESTAURANT,Restaurant,Risk 1 (High),1800 W GRAND AVE ,CHICAGO,IL,60622.0,41.8910111864722,-87.6721474584745,2024-11-26,Canvass,Pass,0.0,1.0,0.0,-28.573809,-34.748306,True,24.0,WEST TOWN
2608050,2088772.0,SOUL VIBEZ,SOUL VIBEZ,Restaurant,Risk 1 (High),226 W CHICAGO AVE,CHICAGO,IL,60654.0,41.8966975103498,-87.6353593117835,2024-11-25,Canvass,Fail,1.0,0.0,1.0,13.174247,13.8180685,True,8.0,NEAR NORTH SIDE
2608047,2977866.0,GUSTOS FOOD AND SWEETS,GUSTOS FOOD AND SWEETS,Restaurant,Risk 1 (High),1046 1/2 W ARGYLE ST ,CHICAGO,IL,60640.0,41.9733965092398,-87.6567987485594,2024-11-25,Complaint Re-Inspection,Pass,0.0,1.0,0.0,53.52755,-52.394268,True,3.0,UPTOWN
2608048,1879164.0,THE GREAT AMERICAN BAGEL,THE GREAT AMERICAN BAGEL (T3-H10),Restaurant,Risk 1 (High),11601 W TOUHY AVE ,CHICAGO,IL,60666.0,42.008750765998,-87.9068741340011,2024-11-25,Canvass,Pass w/ Conditions,0.0,0.0,0.0,32.95837,35.12251,True,76.0,OHARE
2608046,2432583.0,KIZUKI RAMEN AND IZAKAYA,KIZUKI RAMEN AND IZAKAYA,Restaurant,Risk 1 (High),1482 N MILWAUKEE AVE,CHICAGO,IL,60622.0,41.9088190956182,-87.6752563375587,2024-11-25,Canvass,Pass w/ Conditions,0.0,0.0,0.0,67.405495,1.6919614,True,24.0,WEST TOWN
2608044,1337815.0,HAROLD'S CHICKEN #24,HAROLD'S CHICKEN,Restaurant,Risk 2 (Medium),407 E 75TH ST,CHICAGO,IL,60619.0,41.758303487883,-87.614831303578,2024-11-25,Canvass,Pass,0.0,1.0,0.0,13.429574,-11.662495,True,69.0,GREATER GRAND CROSSING
2608038,2868173.0,FLAME'S GRILL & CHICKEN,SHARKS FISH & CHICKEN,Restaurant,Risk 2 (Medium),10255 S WESTERN AVE ,CHICAGO,IL,60643.0,41.7065829329943,-87.6814808934717,2024-11-25,Complaint,Pass,0.0,1.0,0.0,-18.079908,-11.7592535,True,72.0,BEVERLY
2608035,2677617.0,PHO 888,PHO 888,Restaurant,Risk 1 (High),1137 W ARGYLE ST ,CHICAGO,IL,60640.0,41.973142758883,-87.6592771141937,2024-11-25,Complaint Re-Inspection,Pass,0.0,1.0,0.0,-42.49975,-40.686256,True,3.0,UPTOWN
2608041,1742021.0,7-ELEVEN,7-ELEVEN,Grocery Store,Risk 2 (Medium),318 W ADAMS ST ,CHICAGO,IL,60606.0,41.87947279718,-87.6358074810281,2024-11-25,Canvass,Pass w/ Conditions,0.0,0.0,0.0,69.11107,-18.189148,True,32.0,LOOP
2608037,2972341.0,TACOS LOS PRIMOS CO,TACOS LOS PRIMOS CO,Restaurant,Risk 3 (Low),5754 N WESTERN AVE ,CHICAGO,IL,60659.0,41.9866048026377,-87.6896891167779,2024-11-25,License Re-Inspection,Fail,1.0,0.0,1.0,-16.533285,4.6167946,True,2.0,WEST RIDGE
2608027,1842835.0,IZALCO RESTAURANT,IZALCO RESTAURANT,Restaurant,Risk 1 (High),4377 W 26TH ST ,CHICAGO,IL,60623.0,41.8440059000541,-87.7340464939846,2024-11-25,Canvass,Fail,1.0,0.0,1.0,-5.9160976,11.672955,True,30.0,SOUTH LAWNDALE
2608026,2405626.0,DUNKIN DONUTS AND BASKIN ROBBINS,DUNKIN DONUTS AND BASKIN ROBBINS,Restaurant,Risk 2 (Medium),2477 S ARCHER AVE,CHICAGO,IL,60616.0,41.8475580501644,-87.6454959916825,2024-11-25,Canvass Re-Inspection,Pass,0.0,1.0,0.0,-18.124022,-38.45335,True,60.0,BRIDGEPORT
2608022,2657927.0,TACONAZO EL ORIGINAL #1,TACONAZO EL ORIGINAL #1,Restaurant,Risk 1 (High),4124 W NORTH AVE,CHICAGO,IL,60639.0,41.9099465502623,-87.7299503713971,2024-11-25,Complaint,Fail,1.0,0.0,1.0,-9.603748,-0.79767716,True,23.0,HUMBOLDT PARK
2608020,2851292.0,CREPE & BEAN,CREPE & BEAN,Restaurant,Risk 2 (Medium),555 W MADISON ST ,CHICAGO,IL,60661.0,41.8817375162117,-87.6418080251031,2024-11-25,Canvass Re-Inspection,Pass,0.0,1.0,0.0,51.12935,-57.89576,True,28.0,NEAR WEST SIDE
2608019,2263820.0,SUN WAH BAR-B-Q INC CO,SUN WAH BAR-B-Q,Restaurant,Risk 1 (High),5039-5043 N BROADWAY,CHICAGO,IL,60640.0,41.9738502894959,-87.659653581957,2024-11-25,Canvass,Pass w/ Conditions,0.0,0.0,0.0,63.259163,31.845276,True,3.0,UPTOWN
2608016,2956979.0,RUMAN CHAI SHAI & RESTAURANT,RUMAN CHAI SHAI & RESTAURANT,Restaurant,Risk 1 (High),6348 N ARTESIAN AVE ,CHICAGO,IL,60659.0,41.9973348727762,-87.691239617023,2024-11-25,Complaint Re-Inspection,Pass,0.0,1.0,0.0,-52.045853,18.39005,True,2.0,WEST RIDGE
2608013,1964668.0,"HOLLYWOOD FOOD MARKET, INC.","HOLLYWOOD FOOD MARKET, INC.",Restaurant,Risk 2 (Medium),606 E 79TH ST ,CHICAGO,IL,60619.0,41.7513145772104,-87.6097738741829,2024-11-25,Canvass,Pass,0.0,1.0,0.0,-29.768036,-27.368658,True,69.0,GREATER GRAND CROSSING
2608011,2133895.0,WILD HARE,WILD HARE,Restaurant,Risk 1 (High),2610 N HALSTED ST ,CHICAGO,IL,60614.0,41.9294620596915,-87.6490494780588,2024-11-25,Complaint Re-Inspection,Pass,0.0,1.0,0.0,-3.4683912,-31.279062,True,7.0,LINCOLN PARK
2608004,2264071.0,CELIS NUTRICION,CELIS NUTRICION,Restaurant,Risk 2 (Medium),3344 W 63RD ST ,CHICAGO,IL,60629.0,41.7790142647439,-87.7073421616873,2024-11-25,Canvass,Fail,1.0,0.0,1.0,-7.9831963,80.16249,True,66.0,CHICAGO LAWN
2608003,2808176.0,TAKIE OUTIT,TAKIE OUTIT,Restaurant,Risk 1 (High),2132 W CHICAGO AVE ,CHICAGO,IL,60622.0,41.8959560395718,-87.6808420300601,2024-11-25,Canvass,Pass,0.0,1.0,0.0,-2.8312745,-23.573534,True,24.0,WEST TOWN
2608001,2516681.0,CREMERIA LA ORDENA #3 LLC,CREMERIA LA ORDENA #3 LLC,Grocery Store,Risk 1 (High),3234 W 26TH ST ,CHICAGO,IL,60623.0,41.8446099224887,-87.7063193435995,2024-11-25,Canvass,Pass,0.0,1.0,0.0,-71.16732,-17.102625,True,30.0,SOUTH LAWNDALE
2608000,2256139.0,MIXED GREENS,MIXED GREENS,Restaurant,Risk 1 (High),308 W ERIE ST ,CHICAGO,IL,60654.0,41.8940729043825,-87.636065856557,2024-11-25,Canvass Re-Inspection,Pass,0.0,1.0,0.0,-32.777992,-28.562775,True,8.0,NEAR NORTH SIDE
2607995,2713354.0,FOOD ON THE RUN,FOOD ON THE RUN,Restaurant,Risk 1 (High),8036-8040 S ASHLAND AVE ,CHICAGO,IL,60620.0,41.7474222540967,-87.663508278342,2024-11-25,Canvass Re-Inspection,Pass,0.0,1.0,0.0,-30.244339,-15.349586,True,71.0,AUBURN GRESHAM
2607994,2738557.0,"SUMMIT GROCERY ROGERS PARK, INC",SUMMIT GROCERY ROGERS PARK,Grocery Store,Risk 1 (High),7300 N ROGERS AVE ,CHICAGO,IL,60626.0,42.0137736925998,-87.6803007317008,2024-11-25,Canvass Re-Inspection,Pass,0.0,1.0,0.0,-0.03976015,-40.29188,True,1.0,ROGERS PARK
2607990,2839930.0,MYCHA,MYCHA,Restaurant,Risk 2 (Medium),500 W 32ND ST ,CHICAGO,IL,60616.0,41.8364284022243,-87.6389922459979,2024-11-25,Canvass,Fail,1.0,0.0,1.0,66.829735,7.917971,True,60.0,BRIDGEPORT
2607988,2997000.0,"JJ FOOD MARKET, INC.","JJ FOOD MARKET, INC.",Grocery Store,Risk 2 (Medium),957 N DRAKE AVE ,CHICAGO,IL,60651.0,41.8989726839301,-87.7150618801607,2024-11-25,License Re-Inspection,Pass,0.0,1.0,0.0,25.69547,-23.836582,True,23.0,HUMBOLDT PARK
2607998,37002.0,LA CONDESA,LA CONDESA,Restaurant,Risk 1 (High),1003 N ASHLAND AVE ,CHICAGO,IL,60622.0,41.8998186615082,-87.6672485778532,2024-11-25,Canvass,Pass,0.0,1.0,0.0,-6.842179,-54.06108,True,24.0,WEST TOWN
2607993,2289932.0,JELLYBEAN LEARNING CENTER VI,JELLYBEAN LEARNING CENTER,Daycare Above and Under 2 Years,Risk 1 (High),7411 S COTTAGE GROVE AVE ,CHICAGO,IL,60619.0,41.7600332477471,-87.6052882334811,2024-11-25,Canvass,Pass,0.0,1.0,0.0,11.202666,1.2266647,True,69.0,GREATER GRAND CROSSING
2607991,2483879.0,DUNKIN DONUTS,DUNKIN DONUTS,Restaurant,Risk 2 (Medium),5602-5604 N CLARK ST ,CHICAGO,IL,60660.0,41.9835818892851,-87.6689263098409,2024-11-25,Canvass,Pass,0.0,1.0,0.0,-5.6481056,-47.691902,True,77.0,EDGEWATER
2607987,23023.0,STARBUCKS COFFEE #203,STARBUCKS COFFEE #203,Restaurant,Risk 2 (Medium),150 N WACKER DR ,CHICAGO,IL,60606.0,41.8845254609562,-87.6372163924749,2024-11-25,Canvass,Fail,1.0,0.0,1.0,-1.3072312,-63.6372,True,32.0,LOOP
2607985,2511955.0,BARRY'S BOOTCAMP,BARRY'S BOOTCAMP,Restaurant,Risk 2 (Medium),1933 N HALSTED ST ,CHICAGO,IL,60614.0,41.9169666345558,-87.6483064098177,2024-11-25,Canvass,Pass w/ Conditions,0.0,0.0,0.0,24.22919,-14.467569,True,7.0,LINCOLN PARK
2608064,2622213.0,SOMERIA FOOD MART INC.,SOMERIA FOOD MART INC.,Grocery Store,Risk 2 (Medium),2814 W DEVON AVE,CHICAGO,IL,60659.0,41.9976589831736,-87.700297039657,2024-11-25,Complaint,Fail,1.0,0.0,1.0,1.6345274,-18.957739,True,2.0,WEST RIDGE
2607982,2137953.0,PAULINES,PAULINE'S,Restaurant,Risk 1 (High),1752-1754 W BALMORAL AVE ,CHICAGO,IL,60640.0,41.9798609390971,-87.6742041302915,2024-11-25,Canvass,Pass,0.0,1.0,0.0,-14.56249,-18.17137,True,77.0,EDGEWATER
2607981,2013754.0,CIRCLE K #6736,SHELL,Grocery Store,Risk 2 (Medium),346-350 W CHICAGO AVE ,CHICAGO,IL,60654.0,41.896655371083,-87.6375075014329,2024-11-25,Canvass,Pass,0.0,1.0,0.0,11.926031,-5.710348,True,8.0,NEAR NORTH SIDE
2607979,2813682.0,ANDREA'S BAKERY,ANDREA'S BAKERY,Bakery,Risk 2 (Medium),4140 W 63RD ST ,CHICAGO,IL,60629.0,41.7787181882138,-87.7268246778877,2024-11-25,Canvass,Pass,0.0,1.0,0.0,7.77697,-42.885937,True,65.0,WEST LAWN
2607973,2822578.0,STARBUCKS COFFEE #51649,STARBUCKS,Restaurant,Risk 2 (Medium),9438 S ASHLAND AVE ,CHICAGO,IL,60620.0,41.7218694532485,-87.6628427873043,2024-11-25,Canvass,Pass,0.0,1.0,0.0,-25.763748,-15.732876,True,73.0,WASHINGTON HEIGHTS
2607972,2179543.0,JACKALOPE COFFEE & TEA HOUSE,JACKALOPE COFFEE & TEA HOUSE,Restaurant,Risk 2 (Medium),753-755 W 32ND ST,CHICAGO,IL,60616.0,41.8361169835601,-87.6457701269918,2024-11-25,Canvass Re-Inspection,Pass,0.0,1.0,0.0,-15.081735,-27.12488,True,60.0,BRIDGEPORT
2607970,8475.0,CARNICERIA AGUACALIENTES,CARNICERIA AGUACALIENTES,Grocery Store,Risk 1 (High),3132 W 26TH ST,CHICAGO,IL,60623.0,41.8446400035817,-87.7038745499713,2024-11-25,Canvass,Fail,1.0,0.0,1.0,31.949663,22.808105,True,30.0,SOUTH LAWNDALE
2607971,2882700.0,TAMALERIA ROMAN,TAMALERIA ROMAN,Restaurant,Risk 1 (High),5054 W Armitage AVE ,CHICAGO,IL,60639.0,41.9169551042892,-87.7531462159792,2024-11-25,Canvass Re-Inspection,Pass w/ Conditions,0.0,0.0,0.0,59.937195,-7.1319675,True,19.0,BELMONT CRAGIN
2607967,1579825.0,Pat's Pizzeria,Pat's Pizzeria,Restaurant,Risk 1 (High),2679 N LINCOLN AVE ,CHICAGO,IL,60614.0,41.9307567600478,-87.6559784166489,2024-11-22,Complaint Re-Inspection,Pass,0.0,1.0,0.0,14.263126,-4.091312,True,7.0,LINCOLN PARK
2607965,2229533.0,DIMO'S PIZZA SIX CORNERS,DIMO'S PIZZA SIX CORNERS,Restaurant,Risk 1 (High),1615 N Damen AVE,CHICAGO,IL,60647.0,41.9109177944216,-87.6773263962659,2024-11-22,Canvass,Pass w/ Conditions,0.0,0.0,0.0,-9.180743,11.662652,True,24.0,WEST TOWN
2607964,2817304.0,CHENGDU IMPRESSION SICHUAN CUISINE,CHENGDU IMPRESSION SICHUAN CHUISINE,Restaurant,Risk 1 (High),1300 N MILWAUKEE AVE ,CHICAGO,IL,60622.0,41.9052000853479,-87.669578754052,2024-11-22,Complaint,Pass,0.0,1.0,0.0,-5.8982887,78.69746,True,24.0,WEST TOWN
2607960,2912463.0,VARIETALE BAGELS & COFFEE,VARIETALE BAGELS & COFFEE,Restaurant,Risk 1 (High),6206 N BROADWAY,CHICAGO,IL,60660.0,41.9948051667395,-87.6605603134528,2024-11-22,Canvass,Fail,1.0,0.0,1.0,38.890755,24.034042,True,77.0,EDGEWATER
2607962,2608946.0,POPS ITALIAN BEEF TWO,POPS ITALIAN BEEF TWO,Restaurant,Risk 1 (High),10337 S KEDZIE AVE ,CHICAGO,IL,60655.0,41.7050324842898,-87.7011601257365,2024-11-22,Complaint,Fail,1.0,0.0,1.0,-9.489794,56.250713,True,74.0,MOUNT GREENWOOD
2607963,1770713.0,OSAS AFRICAN RESTAURANT & CATERING SERVICES,OSAS AFRICAN RESTAURANT & CATERING SERVICES,Restaurant,Risk 1 (High),1027 W WILSON AVE,CHICAGO,IL,60640.0,41.9653086150865,-87.6559495935919,2024-11-22,Canvass,Fail,1.0,0.0,1.0,63.304592,15.047405,True,3.0,UPTOWN
2607958,2215475.0,STAIR STEP VILLA NUR & KINDERG,STAIR STEP VILLA NUR & KINDERG,Daycare (2 - 6 Years),Risk 1 (High),6725 S JEFFERY BLVD ,CHICAGO,IL,60649.0,41.7726866749973,-87.5763281444179,2024-11-22,License,Pass,0.0,1.0,0.0,-66.09344,-29.772552,True,43.0,SOUTH SHORE
2607953,2153142.0,GYROS 47,GYROS 47,Restaurant,Risk 2 (Medium),350 E 47TH ST ,CHICAGO,IL,60653.0,41.8094773717296,-87.6175885395433,2024-11-22,Complaint,Pass,0.0,1.0,0.0,23.611355,11.217826,True,38.0,GRAND BOULEVARD
2607952,2952488.0,AU LEVAIN,AU LEVAIN,Restaurant,Risk 1 (High),4301 N LINCOLN AVE ,CHICAGO,IL,60618.0,41.9596722096054,-87.6824620150231,2024-11-22,License,Pass,0.0,1.0,0.0,52.14946,-31.794718,True,5.0,NORTH CENTER
2607950,2594633.0,POPEYE'S#835,POPEYE'S CHICKEN,Restaurant,Risk 1 (High),3457 W ROOSEVELT RD ,CHICAGO,IL,60624.0,41.8662130189822,-87.7127816493052,2024-11-22,Complaint,Fail,1.0,0.0,1.0,-10.9770975,-1.0757456,True,29.0,NORTH LAWNDALE
2607949,1275144.0,FRIENDSHIP RESTAURANT,FRIENDSHIP RESTAURANT,Restaurant,Risk 1 (High),2830 N MILWAUKEE AVE ,CHICAGO,IL,60618.0,41.9326132953891,-87.7134491774521,2024-11-22,Canvass,Fail,1.0,0.0,1.0,-10.610755,49.42264,True,21.0,AVONDALE
2607948,2923949.0,HAPPY LAMB HOT POT #3,HAPPY LAMB HOT POT #3,Restaurant,Risk 1 (High),3207 S HALSTED ST,CHICAGO,IL,60608.0,41.8359884377493,-87.6460816018781,2024-11-22,Canvass,Pass,0.0,1.0,0.0,5.971265,-12.089041,True,60.0,BRIDGEPORT
2607945,19444.0,OUTPUT WRIGLEYVILLE,OUTPUT WRIGLEYVILLE,Restaurant,Risk 1 (High),3718-3720 N CLARK ST ,CHICAGO,IL,60613.0,41.9495336411084,-87.6585612230964,2024-11-22,Canvass Re-Inspection,Pass,0.0,1.0,0.0,-68.37303,-28.050339,True,6.0,LAKE VIEW
2607946,3001993.0,LA GUERA RESTAURANT,LA GUERA RESTAURANT,Restaurant,Risk 1 (High),3614 E 106TH ST ,CHICAGO,IL,60617.0,41.702845543419,-87.5358455941971,2024-11-22,License,Pass,0.0,1.0,0.0,-43.472588,-6.116198,True,52.0,EAST SIDE
2607944,2851420.0,DRW COLLEGE PREP,DRW COLLEGE PREP,School,Risk 1 (High),931 S HOMAN AVE ,CHICAGO,IL,60624.0,41.8693149650242,-87.7104899612539,2024-11-22,Canvass Re-Inspection,Fail,1.0,0.0,1.0,6.924407,62.94833,True,29.0,NORTH LAWNDALE
2607941,1187.0,SADDLE AND CYCLE CLUB,SADDLE AND CYCLE CLUB,Restaurant,Risk 1 (High),900 W FOSTER AVE,CHICAGO,IL,60640.0,41.9765417315816,-87.6526576399587,2024-11-22,Canvass Re-Inspection,Pass,0.0,1.0,0.0,-23.094875,-1.3158835,True,77.0,EDGEWATER
2607947,2074456.0,GIORDANO'S OF BEVERLY,GIORDANO'S OF BEVERLY,Restaurant,Risk 1 (High),9613 S WESTERN AVE ,CHICAGO,IL,60643.0,41.7186826393178,-87.6818475814118,2024-11-22,Canvass,Pass,0.0,1.0,0.0,-18.504408,60.111694,True,72.0,BEVERLY
2607940,2590201.0,SUBWAY,SUBWAY,Restaurant,Risk 1 (High),2512 W NORTH AVE ,CHICAGO,IL,60647.0,41.9103989782115,-87.6902068285586,2024-11-22,Complaint,Pass w/ Conditions,0.0,0.0,0.0,75.68024,-6.505764,True,24.0,WEST TOWN
2607943,2873269.0,NETTARE,NETTARE,Restaurant,Risk 1 (High),1953 W CHICAGO AVE ,CHICAGO,IL,60622.0,41.8958077481959,-87.6767521346238,2024-11-22,Canvass,Pass w/ Conditions,0.0,0.0,0.0,73.30524,-13.218072,True,24.0,WEST TOWN
2607935,2817980.0,ACTIVA-TE FITNESS & NUTRITION LLC,ACTIVA-TE FITNESS & NUTRITION LLC,Restaurant,Risk 2 (Medium),3919 W 63RD ST ,CHICAGO,IL,60629.0,41.7785726759271,-87.7211117193636,2024-11-22,Canvass,Pass w/ Conditions,0.0,0.0,0.0,82.64418,3.5432131,True,65.0,WEST LAWN
2607936,34203.0,HOST INTERNATIONAL B05,LA TAPENADE  (T1-B5),Restaurant,Risk 1 (High),11601 W TOUHY AVE ,CHICAGO,IL,60666.0,42.008750765998,-87.9068741340011,2024-11-22,Canvass,Pass w/ Conditions,0.0,0.0,0.0,28.295935,35.072037,True,76.0,OHARE
2607932,1768971.0,CARNICERIA EL PORVENIR,CARNICERIA EL PORVENIR,Grocery Store,Risk 2 (Medium),150 E KENSINGTON AVE ,CHICAGO,IL,60628.0,41.6840631979591,-87.6187429679261,2024-11-22,Canvass,Fail,1.0,0.0,1.0,69.68461,27.227938,True,53.0,WEST PULLMAN
2607929,2997327.0,BODEANZ,BODEANZ,Restaurant,Risk 1 (High),342 N PULASKI RD ,CHICAGO,IL,60624.0,41.8867593234263,-87.7259881688208,2024-11-22,License Re-Inspection,Pass,0.0,1.0,0.0,-71.25207,4.6531496,True,26.0,WEST GARFIELD PARK
2607928,2354653.0,EL PESCADOR RESTAURANT,EL PESCADOR RESTAURANT,Restaurant,Risk 1 (High),4056 S WESTERN AVE ,CHICAGO,IL,60609.0,41.8195331314524,-87.6848738754163,2024-11-22,Complaint,Pass,0.0,1.0,0.0,-8.184318,-58.995274,True,58.0,BRIGHTON PARK
2607927,13801.0,DUNKIN DONUTS,DUNKIN DONUTS,Restaurant,Risk 2 (Medium),1954 W PETERSON AVE ,CHICAGO,IL,60660.0,41.990794897235,-87.6792071245083,2024-11-22,Canvass,Pass,0.0,1.0,0.0,19.872564,-24.195724,True,2.0,WEST RIDGE
2607925,2215988.0,GRANNY'S DAYCARE CENTER,GRANNY'S DAYCARE CENTER,Children's Services Facility,Risk 1 (High),157 W 119TH ST ,CHICAGO,IL,60628.0,41.677862591235,-87.6274010069214,2024-11-22,Recent Inspection,No Entry,0.0,0.0,0.0,-13.893235,56.064117,True,53.0,WEST PULLMAN
2607923,29201.0,SHERIDAN M. MAGNET,MARK SHERIDAN MAGNET SCHOOL,School,Risk 1 (High),533 W 27th St (2700S) ,CHICAGO,IL,60616.0,41.8443729283673,-87.641313993371,2024-11-22,Canvass Re-Inspection,Fail,1.0,0.0,1.0,-2.3332062,70.920784,True,60.0,BRIDGEPORT
2607921,2369189.0,TESFA ETHIOPIAN CUISINE,TESFA ETHIOPIAN CUISINE,Restaurant,Risk 1 (High),5352 N BROADWAY,CHICAGO,IL,60640.0,41.9797075163928,-87.6601074596661,2024-11-22,Complaint,Fail,1.0,0.0,1.0,-14.824886,58.06009,True,77.0,EDGEWATER
2607919,1878465.0,OUR LADY OF TEPEYAC  ELEM.,OUR LADY OF TEPEYAC SCHOOL,School,Risk 1 (High),2235 S ALBANY AVE BLDG,CHICAGO,IL,60623.0,41.8507529225723,-87.7026248304395,2024-11-22,Canvass,Pass,0.0,1.0,0.0,-13.652311,-33.777435,True,30.0,SOUTH LAWNDALE
2607920,2522839.0,LITTLE LEADERS OF TOMORROS,LITTLE LEADERS OF TOMORROS,Daycare (2 - 6 Years),Risk 1 (High),301 N MAYFIELD AVE ,CHICAGO,IL,60644.0,41.8856960445214,-87.7718290036689,2024-11-22,Canvass Re-Inspection,Pass,0.0,1.0,0.0,-60.03879,4.6536474,True,25.0,AUSTIN
2607917,2529036.0,PRINTER'S ROW COFFEE COMPANY,PRINTER'S ROW COFFEE COMPANY,Restaurant,Risk 2 (Medium),2482 N LINCOLN AVE ,CHICAGO,IL,60614.0,41.9271275195073,-87.6513251073611,2024-11-22,Canvass,Fail,1.0,0.0,1.0,2.5048156,-56.23165,True,7.0,LINCOLN PARK
2607915,2988375.0,FRESH MART EXPRESS INC.,FRESH MART EXPRESS INC.,Grocery Store,Risk 3 (Low),9455 S ASHLAND AVE,CHICAGO,IL,60620.0,41.7214216530356,-87.6625438076181,2024-11-22,License,Pass w/ Conditions,0.0,0.0,0.0,-6.522607,35.676926,True,73.0,WASHINGTON HEIGHTS
2607914,2627373.0,KIMCHI POP BY CHEF SON,KIMCHI POP,Restaurant,Risk 1 (High),939 N ASHLAND AVE ,CHICAGO,IL,60622.0,41.8990798064073,-87.6672280571577,2024-11-22,Canvass,Pass,0.0,1.0,0.0,-20.728477,-57.29769,True,24.0,WEST TOWN
2607910,2578895.0,AZTLAN MEXICAN GRILLL 1 INC.,AZTLAN MEXICAN GRILL,Restaurant,Risk 1 (High),3358 W MONTROSE AVE ,CHICAGO,IL,60618.0,41.9612396706483,-87.7130766179954,2024-11-22,Canvass,Pass w/ Conditions,0.0,0.0,0.0,45.070095,26.988577,True,14.0,ALBANY PARK
2607908,2542650.0,WAHMEI FOOD CORP,WAHMEI FOOD CORP,Grocery Store,Risk 2 (Medium),2409 S WENTWORTH AVE,CHICAGO,IL,60616.0,41.8488678871551,-87.6317801132759,2024-11-22,Canvass Re-Inspection,Pass,0.0,1.0,0.0,-34.205334,-21.750105,True,34.0,ARMOUR SQUARE
2607894,2215567.0,NIA FAMILY CENTER,NIA FAMILY CENTER,Children's Services Facility,Risk 1 (High),744 N MONTICELLO AVE ,CHICAGO,IL,60624.0,41.8950008731713,-87.7176671048021,2024-11-21,Canvass,Pass w/ Conditions,0.0,0.0,0.0,35.841824,42.87154,True,23.0,HUMBOLDT PARK
2607893,1334706.0,TRASPASADA #2,TRASPASADA #2,Restaurant,Risk 1 (High),811 N ASHLAND AVE ,CHICAGO,IL,60622.0,41.8964372084071,-87.6671546654279,2024-11-21,Canvass,Pass,0.0,1.0,0.0,50.469894,-56.92555,True,24.0,WEST TOWN
2607898,2704362.0,IDOF FRESH MEDITERRANEAN,IDOF FRESH MEDITERRANEAN,Restaurant,Risk 1 (High),1920 W NORTH AVE ,CHICAGO,IL,60622.0,41.9106204190604,-87.6759320121428,2024-11-21,Canvass,Fail,1.0,0.0,1.0,18.253609,27.581427,True,24.0,WEST TOWN
2607888,2411612.0,TARGET STORE T-3207,STARBUCKS COFFEE,Grocery Store,Risk 2 (Medium),401 E ILLINOIS ST ,CHICAGO,IL,60611.0,41.8909436152216,-87.6175405926084,2024-11-21,Short Form Complaint,Pass,0.0,1.0,0.0,-38.300827,-51.135345,True,8.0,NEAR NORTH SIDE
2607887,2689028.0,NEW CAJUN GRILL,NEW CAJUN GRILL,Restaurant,Risk 1 (High),7601 S CICERO AVE ,CHICAGO,IL,60652.0,41.7546601243937,-87.7413847586052,2024-11-21,Complaint,Pass,0.0,1.0,0.0,-32.54284,-33.853928,True,65.0,WEST LAWN
2607885,2517797.0,PARADISE MART,PARADISE MART,Grocery Store,Risk 3 (Low),4809 N CENTRAL PARK AVE ,CHICAGO,IL,60625.0,41.9686674216531,-87.7181163211028,2024-11-21,Complaint,Fail,1.0,0.0,1.0,4.368636,26.263124,True,14.0,ALBANY PARK
2607882,2256139.0,MIXED GREENS,MIXED GREENS,Restaurant,Risk 1 (High),308 W ERIE ST,CHICAGO,IL,60654.0,41.8940729043825,-87.636065856557,2024-11-21,Canvass,Fail,1.0,0.0,1.0,-22.00381,-11.141451,True,8.0,NEAR NORTH SIDE
2607883,2835227.0,"ALL N'FAMILY SHRIMP SHACK, LLC","ALL N'FAMILY SHRIMP SHACK, LLC",Restaurant,Risk 2 (Medium),10341 S HALSTED ST ,CHICAGO,IL,60628.0,41.7056975486334,-87.6426503119795,2024-11-21,Canvass,Pass,0.0,1.0,0.0,-20.550884,-44.77964,True,49.0,ROSELAND
2607881,2129025.0,RINCONCITO DE MORELOS,RINCONCITO DE MORELOS,Restaurant,Risk 1 (High),3910 W NORTH AVE,CHICAGO,IL,60647.0,41.9100187380815,-87.7243952533113,2024-11-21,Canvass,Pass w/ Conditions,0.0,0.0,0.0,-9.330034,9.66839,True,23.0,HUMBOLDT PARK
2607879,2749647.0,LEGENDS CHICKEN & FISH CAFE,LEGENDS CHICKEN & FISH,Restaurant,Risk 2 (Medium),303 W 79TH ST,CHICAGO,IL,60620.0,41.7507112587109,-87.6320192852334,2024-11-21,Canvass,Fail,1.0,0.0,1.0,73.68204,2.0955782,True,44.0,CHATHAM
2607877,2215467.0,Carole Robertson Center for Learning,Carole Robertson Center for Learning,Daycare Combo 1586,Risk 1 (High),3701 W OGDEN AVE ,CHICAGO,IL,60623.0,41.8534753232552,-87.7174906121058,2024-11-21,Canvass Re-Inspection,Pass,0.0,1.0,0.0,-63.89152,-22.967081,True,29.0,NORTH LAWNDALE
2607874,2483482.0,NORTHERN TASTE,NORTHERN TASTE,Restaurant,Risk 1 (High),3409 S HALSTED ST ,CHICAGO,IL,60608.0,41.8322784044681,-87.6459932984307,2024-11-21,Canvass,Pass,0.0,1.0,0.0,7.628445,-1.0902104,True,60.0,BRIDGEPORT
2607875,1932106.0,BEGGAR'S PIZZA,BEGGAR'S PIZZA,Restaurant,Risk 2 (Medium),10314 S HALSTED ST ,CHICAGO,IL,60628.0,41.7064277285155,-87.6429651434542,2024-11-21,Canvass,Pass,0.0,1.0,0.0,-19.096916,-25.675829,True,73.0,WASHINGTON HEIGHTS
2607873,2744563.0,BEARD PAPAS,BEARD PAPAS,Restaurant,Risk 1 (High),1924 W NORTH AVE ,CHICAGO,IL,60622.0,41.9106179234709,-87.6761019206113,2024-11-21,Canvass,Pass,0.0,1.0,0.0,17.57619,-46.731358,True,24.0,WEST TOWN
2607869,2646382.0,NORI SUSHI CHICAGO,NORI SUSHI CHICAGO,Restaurant,Risk 1 (High),1393 N MILWAUKEE AVE ,CHICAGO,IL,60622.0,41.9072085494866,-87.6722816818971,2024-11-21,Canvass,Pass,0.0,1.0,0.0,-25.378517,-33.278095,True,24.0,WEST TOWN
2607866,2642301.0,JOE & THE JUICE NEW YORK LLC,JOE & THE JUICE,Restaurant,Risk 2 (Medium),980 N MICHIGAN AVE ,CHICAGO,IL,60611.0,41.900801649452,-87.6242724679302,2024-11-21,Complaint,Pass w/ Conditions,0.0,0.0,0.0,-14.0530205,6.02095,True,8.0,NEAR NORTH SIDE
2607868,2906740.0,SIFR,SIFR,Restaurant,Risk 1 (High),660 N ORLEANS ST,CHICAGO,IL,60654.0,41.894061488904,-87.6372523399404,2024-11-21,Short Form Complaint,Pass w/ Conditions,0.0,0.0,0.0,58.074467,12.297336,True,8.0,NEAR NORTH SIDE
2607863,3755.0,SOUTHTOWN HEALTH FOODS,SOUTHTOWN HEALTH FOODS,Grocery Store,Risk 2 (Medium),2100 W 95TH ST ,CHICAGO,IL,60643.0,41.721150554364,-87.6750153255137,2024-11-21,Canvass,Pass,0.0,1.0,0.0,-25.76868,-17.724596,True,72.0,BEVERLY
2607860,2358596.0,"RACHEL'S LEARNING CENTER, LTD.",RACHEL'S LEARNING CENTER,Children's Services Facility,Risk 1 (High),5242-5244 W NORTH AVE ,CHICAGO,IL,60639.0,41.9095907009452,-87.7574042941454,2024-11-21,License,Fail,1.0,0.0,1.0,-55.85526,5.8264413,True,25.0,AUSTIN
2607862,2002814.0,Mc DONALDS,Mc DONALDS,Restaurant,Risk 2 (Medium),8415 S PULASKI RD ,CHICAGO,IL,60652.0,41.7398605220475,-87.7214563026118,2024-11-21,Canvass,Pass,0.0,1.0,0.0,-10.47863,-65.03679,True,70.0,ASHBURN
2607854,1680379.0,TOWN HOUSE RESTAURANT & WINE BAR,TOWN HOUSE RESTAURANT & WINE BAR,Restaurant,Risk 1 (High),111 S WACKER DR ,CHICAGO,IL,60606.0,41.8803340992066,-87.6365802377204,2024-11-21,Canvass Re-Inspection,Pass,0.0,1.0,0.0,-86.76014,-17.176132,True,32.0,LOOP
2607852,2293115.0,CAFE BIONDA,CAFE BIONDA,Restaurant,Risk 1 (High),1922-1924 S STATE ST ,CHICAGO,IL,60616.0,41.8558851305485,-87.6273054358417,2024-11-21,Complaint Re-Inspection,Pass,0.0,1.0,0.0,-20.982399,36.462776,True,33.0,NEAR SOUTH SIDE
2607865,2891158.0,CRAB & GRILL,CRAB & GRILL,Restaurant,Risk 2 (Medium),519 E 79TH ST ,CHICAGO,IL,60619.0,41.7510628158023,-87.6116843088385,2024-11-21,Canvass Re-Inspection,Pass,0.0,1.0,0.0,21.544952,-26.850636,True,44.0,CHATHAM
2607855,2636907.0,MOBILE,MOBILE,Grocery Store,Risk 2 (Medium),11501-11515 S HALSTED ST,CHICAGO,IL,60628.0,41.6850295866693,-87.6420045321889,2024-11-21,Canvass,Pass,0.0,1.0,0.0,-14.310963,-12.27847,True,53.0,WEST PULLMAN
2607844,2876991.0,THE COFFEE STUDIO,THE COFFEE STUDIO,Restaurant,Risk 2 (Medium),5628 N CLARK ST ,CHICAGO,IL,60660.0,41.9843848248921,-87.669099313872,2024-11-21,Canvass,Fail,1.0,0.0,1.0,63.445465,4.5210943,True,77.0,EDGEWATER
2607841,2877512.0,EUREST DINING SERVICES,CAFE VERDE,Restaurant,Risk 2 (Medium),225 W WACKER DR ,CHICAGO,IL,60606.0,41.8867092220261,-87.6347108994595,2024-11-21,Canvass,Pass w/ Conditions,0.0,0.0,0.0,61.671547,9.809784,True,32.0,LOOP
2607843,28479.0,WHITE CASTLE #53,WHITE CASTLE #53,Restaurant,Risk 2 (Medium),1400 W 79TH ST ,CHICAGO,IL,60620.0,41.7505349812582,-87.6586520622897,2024-11-21,Canvass,Fail,1.0,0.0,1.0,26.432846,28.185682,True,71.0,AUBURN GRESHAM
2607840,2895973.0,INDIAN CLAY POT,INDIAN CLAY POT,Restaurant,Risk 1 (High),1800-1802 W IRVING PARK RD ,CHICAGO,IL,60613.0,41.9543238379436,-87.6743208368822,2024-11-21,Canvass,Pass,0.0,1.0,0.0,-24.51883,-11.751833,True,5.0,NORTH CENTER
2607833,28477.0,WHITE CASTLE #27,WHITE CASTLE #27,Restaurant,Risk 2 (Medium),1550 E 79TH ST,CHICAGO,IL,60619.0,41.7516032259316,-87.5865654252896,2024-11-21,Canvass,Pass,0.0,1.0,0.0,-34.774033,-33.327507,True,45.0,AVALON PARK
2607835,16735.0,"RICH'S DELI & LIQUOR, INC","RICH'S DELI & LIQUOR, INC",Grocery Store,Risk 1 (High),857 N WESTERN AVE ,CHICAGO,IL,60622.0,41.8974609844909,-87.6867385576512,2024-11-21,Canvass,Pass,0.0,1.0,0.0,28.375786,-31.784203,True,24.0,WEST TOWN
2607830,2340710.0,ARAMARK @ NORTH PARK,1891 BREAD CO,Restaurant,Risk 2 (Medium),5145 N CHRISTIANA AVE ,CHICAGO,IL,60625.0,41.9752238649665,-87.7121856176217,2024-11-21,Canvass,Pass w/ Conditions,0.0,0.0,0.0,62.08493,-13.069536,True,13.0,NORTH PARK
2607826,2877168.0,MAMA'S MEAT MARKET INC.,MAMA'S MEAT MARKET,Grocery Store,Risk 2 (Medium),3400 W 79TH ST ,CHICAGO,IL,60652.0,41.7499032419837,-87.7073483920082,2024-11-21,Canvass,Fail,1.0,0.0,1.0,-15.755526,14.017176,True,70.0,ASHBURN
2607829,2817504.0,HEARTY CAFE PANCAKE HOUSE,HEARTY CAFE PANCAKE HOUSE,Restaurant,Risk 1 (High),9623 S WESTERN AVE,CHICAGO,IL,60643.0,41.7183981930824,-87.6818383658442,2024-11-21,Canvass,Pass,0.0,1.0,0.0,-20.927668,-26.83514,True,72.0,BEVERLY
2607825,2907137.0,KA CAFE,KA CAFE,Restaurant,Risk 1 (High),1925 W FOSTER AVE,CHICAGO,IL,60640.0,41.9759497623519,-87.6774754373692,2024-11-21,Canvass,Pass,0.0,1.0,0.0,24.976068,-28.299156,True,4.0,LINCOLN SQUARE
2607828,2997682.0,PANERA BREAD #7040,PANERA BREAD #7040,Restaurant,Risk 1 (High),1 E ERIE ST ,CHICAGO,IL,60611.0,41.8939642683008,-87.6280628300065,2024-11-21,License,Fail,1.0,0.0,1.0,28.923603,2.1586711,True,8.0,NEAR NORTH SIDE
2607822,1515706.0,WING CHEONG GROCERY INC,WING CHEONG GROCERY INC,Grocery Store,Risk 2 (Medium),2317 S WENTWORTH AVE ,CHICAGO,IL,60616.0,41.8504684838027,-87.6318159123554,2024-11-21,Canvass Re-Inspection,Pass w/ Conditions,0.0,0.0,0.0,66.94765,30.980322,True,34.0,ARMOUR SQUARE
2607821,2749286.0,CLOVER SPORTS BAR,CLOVER SPORTS BAR,Restaurant,Risk 3 (Low),722-724 W GRAND AVE ,CHICAGO,IL,60654.0,41.8913055578557,-87.6468066284714,2024-11-21,Canvass,Pass,0.0,1.0,0.0,-23.238644,-13.03587,True,24.0,WEST TOWN
2607819,2856411.0,PUTTERY,PUTTERY,Restaurant,Risk 1 (High),932 W RANDOLPH ST ,CHICAGO,IL,60607.0,41.8844561030936,-87.65100084414,2024-11-21,Canvass,Pass,0.0,1.0,0.0,-27.190338,16.497377,True,28.0,NEAR WEST SIDE
2607820,2659209.0,DAVID JENSON CATERING,DAVID JENSON CATERING,Catering,Risk 1 (High),1901 S Racine AVE ,CHICAGO,IL,60608.0,41.8565742697299,-87.656239460703,2024-11-21,Canvass,Pass,0.0,1.0,0.0,-84.33777,-15.199666,True,31.0,LOWER WEST SIDE
2607818,2575384.0,MCDONALD'S RESTAURANT,MCDONALD'S,Restaurant,Risk 2 (Medium),11421 S HALSTED ST ,CHICAGO,IL,60628.0,41.6862492664438,-87.6420421730029,2024-11-21,Canvass,Pass,0.0,1.0,0.0,-25.392693,7.0053596,True,49.0,ROSELAND
2607814,1821281.0,DUNKIN DONUTS BASKIN ROBBINS,DUNKIN DONUTS BASKIN ROBBINS,Restaurant,Risk 2 (Medium),5050 W GRAND AVE ,CHICAGO,IL,60639.0,41.9166439427955,-87.7525786088618,2024-11-21,Canvass,Fail,1.0,0.0,1.0,-17.040966,-18.21127,True,19.0,BELMONT CRAGIN
2607813,2972227.0,701 Restaurant Bar,701 Bar and Grill,Restaurant,Risk 1 (High),5737 W IRVING PARK RD ,CHICAGO,IL,60634.0,41.9530203086429,-87.7709680005806,2024-11-21,License Re-Inspection,Pass,0.0,1.0,0.0,58.978912,-49.39802,True,15.0,PORTAGE PARK
2607812,2845284.0,AXUM ETHIOPIAN RESTAURANT,AXUM ETHIOPIAN RESTAURANT,Restaurant,Risk 1 (High),5844-5846 N BROADWAY ,CHICAGO,IL,60660.0,41.9883259295294,-87.6603603632976,2024-11-20,Canvass,Fail,1.0,0.0,1.0,-6.38219,-18.44088,True,77.0,EDGEWATER
2607804,2939301.0,SPOT STOP DELI & GROCERY,SPOT STOP DELI & GROCERY,Grocery Store,Risk 1 (High),1122 W WILSON AVE ,CHICAGO,IL,60640.0,41.9654970361273,-87.6584028095484,2024-11-20,Canvass,Pass w/ Conditions,0.0,0.0,0.0,59.399487,0.4621149,True,3.0,UPTOWN
2607801,2320601.0,WALMART NEIGHBORHOOD MARKET #3110,WALMART NEIGHBORHOOD MARKET,Grocery Store,Risk 1 (High),7535 S ASHLAND AVE ,CHICAGO,IL,60620.0,41.7565454141258,-87.6634438528519,2024-11-20,Short Form Complaint,Pass,0.0,1.0,0.0,-26.480171,77.012276,True,71.0,AUBURN GRESHAM
2607802,2125165.0,"LUIGI'S PIZZA BY THE SLICE, INC",LUIGI'S PIZZA,Restaurant,Risk 1 (High),4212 W MADISON ST ,CHICAGO,IL,60624.0,41.8807697390537,-87.7311560969275,2024-11-20,Complaint Re-Inspection,Pass,0.0,1.0,0.0,38.551758,-14.656655,True,26.0,WEST GARFIELD PARK
2607800,3532.0,WOLFY'S,WOLFY'S,Restaurant,Risk 1 (High),2734 W PETERSON AVE ,CHICAGO,IL,60659.0,41.9905587014775,-87.6984002623387,2024-11-20,Canvass,Pass,0.0,1.0,0.0,-25.178051,-42.087776,True,2.0,WEST RIDGE
2607799,2020869.0,ERIC'S FOOD CENTER,SUPERMERCADO TAPATIA,Grocery Store,Risk 2 (Medium),13209 S BALTIMORE AVE,CHICAGO,IL,60633.0,41.6551885902996,-87.546999418528,2024-11-20,Canvass,Pass,0.0,1.0,0.0,-14.90386,-11.881227,True,55.0,HEGEWISCH
2607796,1245191.0,LUCIA GOURMET ITALIAN CUISINE,LUCIA GOURMET ITALIAN CUISINE,Restaurant,Risk 1 (High),1825 W NORTH AVE ,CHICAGO,IL,60622.0,41.9104341147292,-87.6736504878923,2024-11-20,Canvass,Pass,0.0,1.0,0.0,-26.020477,-34.117283,True,24.0,WEST TOWN
2607797,2665287.0,PALETERIA Y NEVERIA LA MICHOACANA FRESA,PALETERIA Y NEVERIA LA MICHOACANA FRESA,Restaurant,Risk 1 (High),5958 S PULASKI RD ,CHICAGO,IL,60629.0,41.784158701334,-87.7230611924303,2024-11-20,Canvass,Pass,0.0,1.0,0.0,21.891888,-17.384537,True,65.0,WEST LAWN
2607793,1446767.0,MONTI'S,MONTI'S,Restaurant,Risk 1 (High),4757 N TALMAN AVE,CHICAGO,IL,60625.0,41.9683632354706,-87.6948684995906,2024-11-20,Canvass,Pass,0.0,1.0,0.0,-30.673378,-55.197433,True,4.0,LINCOLN SQUARE
2607790,2984081.0,TJ MEXICAN FOOD,TJ MEXICAN FOOD,Mobile Prepared Food Vendor,Risk 2 (Medium),2300 S THROOP ST ,CHICAGO,IL,60608.0,41.85045102427,-87.6587978556787,2024-11-20,License,Fail,1.0,0.0,1.0,28.006115,4.116839,True,31.0,LOWER WEST SIDE
2607784,1873335.0,LITTLE CAESAR PIZZA,LITTLE CAESAR PIZZA,Restaurant,Risk 2 (Medium),5640 W ROOSEVELT RD ,CHICAGO,IL,60644.0,41.8656817419313,-87.7660369918425,2024-11-20,Complaint,Pass,0.0,1.0,0.0,51.226315,-58.066696,True,25.0,AUSTIN
2607785,1823777.0,DUNKIN DONUTS/BASKIN ROBBINS,DUNKIN DONUTS/BASKIN ROBBINS,Restaurant,Risk 2 (Medium),3481 S DR MARTIN LUTHER KING JR DR,CHICAGO,IL,60616.0,41.8311855102885,-87.6168209998827,2024-11-20,Canvass,Pass,0.0,1.0,0.0,-19.052937,-62.335426,True,35.0,DOUGLAS
2607782,2078867.0,TAQUERIA  CD  HIDALGO,TAQUERIA  CD  HIDALGO,Restaurant,Risk 1 (High),7104 N CLARK ST,CHICAGO,IL,60626.0,42.0115813638168,-87.6746142312982,2024-11-20,Canvass,Pass,0.0,1.0,0.0,-18.722906,-10.444395,True,1.0,ROGERS PARK
2607781,1245300.0,"Calo Lounge, Inc.",Calo Lounge,Restaurant,Risk 1 (High),5341-5343 N CLARK ST ,CHICAGO,IL,60640.0,41.9792255437614,-87.6681528745934,2024-11-20,Canvass,Pass,0.0,1.0,0.0,-22.896004,2.5314906,True,77.0,EDGEWATER
2607780,2929373.0,TACOS EL TIO # 7,TACOS EL TIO # 7,Restaurant,Risk 1 (High),6019-6023 N LINCOLN AVE ,CHICAGO,IL,60659.0,41.990811419411,-87.7078415844279,2024-11-20,Canvass,Pass w/ Conditions,0.0,0.0,0.0,2.6557748,28.367357,True,2.0,WEST RIDGE
2607775,2495794.0,DEVIL DAWGS,DEVIL DAWGS,Restaurant,Risk 1 (High),1431 N MILWAUKEE AVE ,CHICAGO,IL,60622.0,41.9079706079986,-87.6734763953501,2024-11-20,Canvass,Pass w/ Conditions,0.0,0.0,0.0,72.21213,-12.720897,True,24.0,WEST TOWN
2607774,2857332.0,CHE THAI LLC,CHE THAI LLC,Restaurant,Risk 1 (High),3945 N BROADWAY,CHICAGO,IL,60613.0,41.9540955766163,-87.6500722513013,2024-11-20,Complaint Re-Inspection,Pass w/ Conditions,0.0,0.0,0.0,-29.907125,7.241748,True,6.0,LAKE VIEW
2607772,2712278.0,MANA,MANA,Grocery Store,Risk 2 (Medium),434 E 71ST ST ,CHICAGO,IL,60619.0,41.7658442147471,-87.6139149652518,2024-11-20,Canvass,Pass,0.0,1.0,0.0,25.610302,-21.813261,True,69.0,GREATER GRAND CROSSING
2607771,2368796.0,BURGER KING #7268,BURGER KING,Restaurant,Risk 2 (Medium),13770 S AVENUE O,CHICAGO,IL,60633.0,41.6446701321981,-87.5400946053766,2024-11-20,Canvass,Pass,0.0,1.0,0.0,-41.91446,-17.849535,True,55.0,HEGEWISCH
2607769,2786471.0,TARGET STORE T-3402,TARGET STORE T-3402,Grocery Store,Risk 2 (Medium),630 N LA SALLE DR ,CHICAGO,IL,60654.0,41.8932447738684,-87.6327867038411,2024-11-20,Short Form Complaint,Pass w/ Conditions,0.0,0.0,0.0,-12.349776,28.996914,True,8.0,NEAR NORTH SIDE
2607768,2827975.0,YES WE CAN NUTRITION,YES WE CAN NUTRITION,Restaurant,Risk 2 (Medium),6534 S PULASKI RD ,CHICAGO,IL,60629.0,41.7739423619985,-87.7227865827361,2024-11-20,Canvass,Pass,0.0,1.0,0.0,-24.955465,-54.33702,True,65.0,WEST LAWN
2607764,2517695.0,METROPOLITAN CLUB,Metropolitan Club,Restaurant,Risk 1 (High),233 S WACKER DR ,CHICAGO,IL,60606.0,41.8785601536237,-87.6365238720553,2024-11-20,Canvass,Pass w/ Conditions,0.0,0.0,0.0,15.385164,12.670895,True,32.0,LOOP
2607762,2600906.0,GORILLA SUSHI,GORILLA SUSHI,Restaurant,Risk 1 (High),3407 W LAWRENCE AVE,CHICAGO,IL,60625.0,41.9682887295517,-87.7136772019082,2024-11-20,Canvass,Pass,0.0,1.0,0.0,6.231954,44.19466,True,14.0,ALBANY PARK
2607766,2684566.0,CHILDREN'S ACADEMY OF NORTH SHORE,NORTHSHORE ACADEMY FOR CHILDREN,Daycare (2 - 6 Years),Risk 1 (High),1754-1756 W DEVON AVE ,CHICAGO,IL,60660.0,41.9981204187612,-87.6741277197211,2024-11-20,Canvass,Fail,1.0,0.0,1.0,6.142368,15.63531,True,1.0,ROGERS PARK
2607761,1368.0,JEWEL FOOD STORE #3181,JEWEL FOOD STORE #3181,Grocery Store,Risk 1 (High),87 W 87TH ST,CHICAGO,IL,60620.0,41.7361451282369,-87.6269178439735,2024-11-20,Canvass,Pass,0.0,1.0,0.0,3.0645578,-4.3608327,True,44.0,CHATHAM
2607773,2595883.0,FRANCONELLO'S,FRANCONELLO'S,Restaurant,Risk 1 (High),10222 S WESTERN AVE ,CHICAGO,IL,60643.0,41.7074831570076,-87.6818019770184,2024-11-20,Complaint,Pass,0.0,1.0,0.0,-20.255533,59.731567,True,72.0,BEVERLY
2607759,2040649.0,HOLY FAMILY LUTHERAN SCHOOL,HOLY FAMILY LUTHERAN SCHOOL,School,Risk 1 (High),3415 W ARTHINGTON ST,CHICAGO,IL,60624.0,41.8698849807589,-87.7113088987269,2024-11-20,Canvass,Pass w/ Conditions,0.0,0.0,0.0,72.20219,6.0102706,True,29.0,NORTH LAWNDALE
2607777,2762503.0,MEDITERRANEAN STOP,MEDITERRANEAN STOP,Mobile Food Preparer,Risk 2 (Medium),135 N KEDZIE AVE,CHICAGO,IL,60612.0,41.883905097045,-87.7060592508395,2024-11-20,License,Fail,1.0,0.0,1.0,62.852474,36.208576,True,27.0,EAST GARFIELD PARK
2607754,2997860.0,GORDITAS ADRIAN'S 2,GORDITAS ADRIAN'S 2,Restaurant,Risk 1 (High),13507 S BRAINARD AVE ,CHICAGO,IL,60633.0,41.6493639920631,-87.5468534433004,2024-11-20,License Re-Inspection,Pass,0.0,1.0,0.0,61.11227,-47.792156,True,55.0,HEGEWISCH
2607751,2997407.0,NOODLEVERSE,NOODLEVERSE,Restaurant,Risk 1 (High),2002 S WENTWORTH AVE FC 7,CHICAGO,IL,60616.0,41.855281703774,-87.6319926422941,2024-11-20,License,Fail,1.0,0.0,1.0,-7.30722,61.65608,True,34.0,ARMOUR SQUARE
2607749,2583808.0,INFUSE HOSPITALITY,TOWER HOUSE,Restaurant,Risk 2 (Medium),233 S WACKER DR ,CHICAGO,IL,60606.0,41.8785601536237,-87.6365238720553,2024-11-20,Canvass,Pass w/ Conditions,0.0,0.0,0.0,77.45947,-10.293884,True,32.0,LOOP
2607746,16765.0,EDGEWATER PRODUCE,EDGEWATER PRODUCE,Grocery Store,Risk 1 (High),5509 N CLARK ST,CHICAGO,IL,60640.0,41.981971376999,-87.6683210322541,2024-11-20,Complaint,Pass,0.0,1.0,0.0,-28.74599,-47.185978,True,77.0,EDGEWATER
2607750,1742248.0,HAMPTON INN,HAMPTON INN,Restaurant,Risk 2 (Medium),22 W MONROE ST ,CHICAGO,IL,60603.0,41.8808449595576,-87.6285910449741,2024-11-20,Canvass,Pass,0.0,1.0,0.0,-25.350458,11.1148405,True,32.0,LOOP
2607745,2770797.0,TROPICUBA RESTAURANT INC.,TROPICUBA RESTAURANT INC.,Restaurant,Risk 1 (High),3000 W LYNDALE ST ,CHICAGO,IL,60647.0,41.9224926699451,-87.7023587740689,2024-11-20,Canvass,Pass w/ Conditions,0.0,0.0,0.0,35.73742,35.34493,True,22.0,LOGAN SQUARE
2607743,1403419.0,IMPALLARIA'S AND DELI,IMPALLARIA'S AND DELI,Bakery,Risk 2 (Medium),2952 S WALLACE ST ,CHICAGO,IL,60616.0,41.8401895352952,-87.6416114447425,2024-11-20,Canvass,Pass,0.0,1.0,0.0,-63.506367,-10.795881,True,60.0,BRIDGEPORT
2607742,1819196.0,NORTH SHORE BAKERY,NORTH SHORE BAKERY,Bakery,Risk 2 (Medium),2919-2921 W TOUHY AVE ,CHICAGO,IL,60645.0,42.0118876875475,-87.7029526138244,2024-11-20,Canvass,Pass w/ Conditions,0.0,0.0,0.0,4.1665726,74.232285,True,2.0,WEST RIDGE
2607741,3001846.0,Penelope's Vegan Taqueria #3,Penelope's Vegan Taqueria #3,Restaurant,Risk 1 (High),1165 W 18TH ST ,CHICAGO,IL,60608.0,41.8578549014685,-87.6557606675521,2024-11-20,License,Fail,1.0,0.0,1.0,-7.719729,77.081085,True,31.0,LOWER WEST SIDE
2607747,2584007.0,FUEL ZONE,MOBIL,Grocery Store,Risk 2 (Medium),130 E 71ST ST,CHICAGO,IL,60619.0,41.7657174799939,-87.620349643544,2024-11-20,Canvass,Pass,0.0,1.0,0.0,-21.74597,62.763588,True,69.0,GREATER GRAND CROSSING
2607739,2646954.0,TOUS LES JOURS,TOUS LES JOURS,Bakery,Risk 1 (High),1726 W DIVISION ST ,CHICAGO,IL,60622.0,41.9033962032985,-87.6711333066212,2024-11-20,Canvass,Pass w/ Conditions,0.0,0.0,0.0,68.16437,31.492117,True,24.0,WEST TOWN
2607737,2192615.0,RAW,RAW,Restaurant,Risk 2 (Medium),51 W HURON ST,CHICAGO,IL,60654.0,41.8947395822407,-87.6300448568165,2024-11-20,Canvass,Fail,1.0,0.0,1.0,20.920296,-7.5374837,True,8.0,NEAR NORTH SIDE
2607738,2340833.0,SOUTH SHORE FOOD MART INC.,SOUTH SHORE FOOD MART,Grocery Store,Risk 1 (High),7900 S SOUTH SHORE DR ,CHICAGO,IL,60617.0,41.751855602467,-87.5482503373389,2024-11-20,Complaint,Fail,1.0,0.0,1.0,-15.108225,-11.978428,True,46.0,SOUTH CHICAGO
2607736,2997995.0,THE BREW PODCAST LLC,THE BREW PODCAST,Restaurant,Risk 1 (High),7101 S YATES BLVD ,CHICAGO,IL,60649.0,41.7662763253935,-87.5663404247903,2024-11-20,License Re-Inspection,Pass w/ Conditions,0.0,0.0,0.0,-0.6972548,25.620365,True,43.0,SOUTH SHORE
2607735,1330889.0,ISKCON-INTERNATIONAL SOCIETY FOR KRISHNA CONSCIOUSNESS,ISKCON-INTERNATIONAL SOCIETY FOR KRISHNA CONSCIOUSNESS,Restaurant,Risk 1 (High),1716 W LUNT AVE ,CHICAGO,IL,60626.0,42.0091121033488,-87.6729838345052,2024-11-20,Canvass,Pass,0.0,1.0,0.0,-22.46522,-12.935731,True,1.0,ROGERS PARK
2607734,2997975.0,R & W FOOD MART,R & W FOOD MART,Grocery Store,Risk 3 (Low),3900 W MADISON ST ,CHICAGO,IL,60624.0,41.8808651559037,-87.7233759677506,2024-11-20,License,Pass,0.0,1.0,0.0,-30.042603,13.960079,True,26.0,WEST GARFIELD PARK
2607733,2694282.0,CAMINO A LA SALUD,CAMINO A LA SALUD,Restaurant,Risk 2 (Medium),4237 W 63RD ST ,CHICAGO,IL,60629.0,41.7784713200368,-87.7290890143035,2024-11-20,Canvass,Pass w/ Conditions,0.0,0.0,0.0,82.7851,3.4785118,True,65.0,WEST LAWN
2607731,2647108.0,OAKTREE ACADEMY,OAKTREE ACADEMY,Children's Services Facility,Risk 1 (High),2120 W LAWRENCE AVE ,CHICAGO,IL,60625.0,41.968816133971,-87.6825109069871,2024-11-20,Canvass,Fail,1.0,0.0,1.0,63.561546,28.66731,True,4.0,LINCOLN SQUARE
2607729,1802852.0,"BEST CHOICE ORIENTAL GROCERY, INC.",BEST CHOICE ORIENTAL GROCERY,Grocery Store,Risk 2 (Medium),2403 S WENTWORTH AVE,CHICAGO,IL,60616.0,41.8490554956367,-87.6317833332927,2024-11-20,Canvass Re-Inspection,Pass,0.0,1.0,0.0,-16.399939,-7.17567,True,34.0,ARMOUR SQUARE
2607730,2988283.0,SOUL VEGAN LUV,SOUL VEGAN LUV,Restaurant,Risk 1 (High),11722 S WESTERN AVE ,CHICAGO,IL,60643.0,41.6802095987798,-87.680938990864,2024-11-20,License Re-Inspection,Pass,0.0,1.0,0.0,-64.04917,18.94731,True,75.0,MORGAN PARK
2607723,2109706.0,AL'S UNDER THE L,AL'S UNDER THE L,Restaurant,Risk 1 (High),2908 W LAKE ST ,CHICAGO,IL,60612.0,41.8842482096662,-87.6992664007292,2024-11-19,Canvass Re-Inspection,Pass,0.0,1.0,0.0,41.601685,-38.97955,True,27.0,EAST GARFIELD PARK
2607724,29966.0,ALMITA SUPER MARKET,ALMITA SUPER MARKET,Grocery Store,Risk 1 (High),5957 N CLARK ST,CHICAGO,IL,60660.0,41.9901304942362,-87.6698533287788,2024-11-19,Canvass,Pass,0.0,1.0,0.0,-16.586,-7.808709,True,77.0,EDGEWATER
2607720,2647892.0,LA PHARMACIE,LA PHARMACIE,Restaurant,Risk 1 (High),5557 N SHERIDAN RD ,CHICAGO,IL,60640.0,41.9834729117544,-87.6550328731429,2024-11-19,Canvass,Pass,0.0,1.0,0.0,37.397583,-40.60631,True,77.0,EDGEWATER
2607714,1676717.0,USMANIA FINE DINING,USMANIA FINE DINING,Restaurant,Risk 1 (High),2244 W DEVON AVE ,CHICAGO,IL,60659.0,41.9978944738774,-87.6867317109705,2024-11-19,Canvass,Pass w/ Conditions,0.0,0.0,0.0,58.251038,-9.484974,True,2.0,WEST RIDGE
2607715,2948168.0,STARBUCKS PALMER HOUSE,STARBUCKS,Restaurant,Risk 2 (Medium),17 E MONROE ST ,CHICAGO,IL,60603.0,41.8806645783961,-87.6270893644417,2024-11-19,Canvass,Pass w/ Conditions,0.0,0.0,0.0,69.22374,-14.714808,True,32.0,LOOP
2607713,2808630.0,COLFAX MART,COLFAX MART,Grocery Store,Risk 2 (Medium),2554 E 83RD ST,CHICAGO,IL,60617.0,41.7446321590225,-87.5614927640038,2024-11-19,Complaint,Fail,1.0,0.0,1.0,1.7041597,56.402805,True,46.0,SOUTH CHICAGO
2607710,2496207.0,CAFE 222 LLC,TASTE 222,Restaurant,Risk 1 (High),222 N CANAL ST ,Chicago,IL,60606.0,41.8864317084714,-87.6400042759055,2024-11-19,Canvass,Pass,0.0,1.0,0.0,-5.545326,-42.719765,True,28.0,NEAR WEST SIDE
2607708,2997336.0,JERUSALEM GRILL,JERUSALEM GRILL,Restaurant,Risk 1 (High),3142 N NARRAGANSETT AVE ,CHICAGO,IL,60634.0,41.9378011706711,-87.7860663920854,2024-11-19,License Re-Inspection,Pass,0.0,1.0,0.0,41.44729,-22.12353,True,19.0,BELMONT CRAGIN
2607707,2862851.0,WOW PIZZERIA,WOW PIZZERIA,Restaurant,Risk 1 (High),5335 N SHERIDAN RD ,CHICAGO,IL,60640.0,41.9791853994018,-87.6549116278385,2024-11-19,Complaint,Pass,0.0,1.0,0.0,-1.2096323,36.593098,True,77.0,EDGEWATER
2607705,2078898.0,INSPIRATION CORPORATION,INSPIRATION CORPORATION,Restaurant,Risk 1 (High),3504-3518 W LAKE ST,CHICAGO,IL,60624.0,41.8849023787073,-87.7138198216245,2024-11-19,Canvass,Pass,0.0,1.0,0.0,-11.558848,-22.118221,True,27.0,EAST GARFIELD PARK
2607703,2924897.0,BONCHON,BONCHON,Restaurant,Risk 1 (High),1732 W DIVISION ST ,CHICAGO,IL,60622.0,41.9033920617297,-87.6713766838127,2024-11-19,Canvass,Fail,1.0,0.0,1.0,73.531395,12.219966,True,24.0,WEST TOWN
2607698,2698610.0,GOLDEN GAI SUSHI,GOLDEN GAI SUSHI,Restaurant,Risk 1 (High),1144 W 18TH ST ,CHICAGO,IL,60608.0,41.8580844048246,-87.6551668737482,2024-11-19,Canvass,Pass,0.0,1.0,0.0,55.52549,-19.37904,True,31.0,LOWER WEST SIDE
2607697,2846290.0,CIRCLE K,CIRCLE K,Grocery Store,Risk 2 (Medium),211 W ADAMS ST ,CHICAGO,IL,60606.0,41.8792728387767,-87.6341031983783,2024-11-19,Canvass,Pass w/ Conditions,0.0,0.0,0.0,69.056404,-18.313925,True,32.0,LOOP
2607695,2906774.0,SURF'S UP BRVERLY/MORGAN PARK,SURF'S UP,Restaurant,Risk 1 (High),10210 S VINCENNES AVE ,CHICAGO,IL,60643.0,41.7084285331549,-87.6555664169265,2024-11-19,Canvass,Pass,0.0,1.0,0.0,-89.81686,-15.372723,True,73.0,WASHINGTON HEIGHTS
2607694,1144116.0,CAFE RESTAURANT ART,CAFE RESTAURANT ART,Restaurant,Risk 1 (High),4658 N ROCKWELL ST,CHICAGO,IL,60625.0,41.9665716930011,-87.6938934909393,2024-11-19,Complaint,Pass,0.0,1.0,0.0,60.485962,43.22877,True,4.0,LINCOLN SQUARE
2607692,2709285.0,MASALA'S,MASALA'S,Grocery Store,Risk 3 (Low),2229 W TAYLOR ST,CHICAGO,IL,60612.0,41.8689207970879,-87.6823829644249,2024-11-19,Complaint,Fail,1.0,0.0,1.0,-10.128839,57.704388,True,28.0,NEAR WEST SIDE
2607688,2728372.0,HAROLDS CHICKEN 23,HAROLDS CHICKEN 23,Restaurant,Risk 2 (Medium),203-205 E GARFIELD BLVD ,CHICAGO,IL,60637.0,41.7942869422777,-87.6206720841227,2024-11-19,Canvass,Fail,1.0,0.0,1.0,64.96369,30.092987,True,40.0,WASHINGTON PARK
2607689,39807.0,THREE HAPPINESS RESTAURANT,THREE HAPPINESS RESTAURANT,Restaurant,Risk 1 (High),209 W CERMAK RD ,CHICAGO,IL,60616.0,41.8527360559815,-87.6324439671779,2024-11-19,Complaint Re-Inspection,Pass w/ Conditions,0.0,0.0,0.0,68.80114,30.603003,True,34.0,ARMOUR SQUARE
2607684,2671515.0,SENORITAS,SENORITAS,Restaurant,Risk 1 (High),1104 W 18TH ST ,CHICAGO,IL,60608.0,41.8581045308614,-87.6536089700583,2024-11-19,Canvass,Pass w/ Conditions,0.0,0.0,0.0,56.30401,10.6750965,True,31.0,LOWER WEST SIDE
2607680,2912025.0,LEGAL SEA FOODS,LEGAL SEA FOODS,Restaurant,Risk 1 (High),315 N DEARBORN ST ,CHICAGO,IL,60654.0,41.8879061613057,-87.629394698683,2024-11-19,Complaint,Pass,0.0,1.0,0.0,-7.165258,-40.6755,True,8.0,NEAR NORTH SIDE
2607679,59789.0,HANDLEBAR CHICAGO,HANDLEBAR CHICAGO,Restaurant,Risk 1 (High),2311 W NORTH AVE ,CHICAGO,IL,60647.0,41.9102403065486,-87.6852600962791,2024-11-19,Canvass,Pass w/ Conditions,0.0,0.0,0.0,41.474545,34.202347,True,24.0,WEST TOWN
2607678,2203561.0,"GREAT CHINA HOUSE, INC.",GREAT CHINA HOUSE,Restaurant,Risk 1 (High),2300 S DAMEN AVE ,CHICAGO,IL,60608.0,41.8503156919455,-87.675935970542,2024-11-19,Canvass,Pass,0.0,1.0,0.0,-24.04051,-32.084137,True,31.0,LOWER WEST SIDE
2607670,1742999.0,DUNKIN DONUTS / BASKIN ROBINS,DUNKIN DONUTS / BASKIN ROBINS,Restaurant,Risk 2 (Medium),555 W LAKE ST ,CHICAGO,IL,60661.0,41.8855922719742,-87.6420002935186,2024-11-19,Canvass,Pass,0.0,1.0,0.0,-6.994098,-44.602512,True,28.0,NEAR WEST SIDE
2607674,2808216.0,DELEITE'S PIZZA AND MEXICAN FOOD LLC,DELEITE'S PIZZA,Restaurant,Risk 1 (High),3576 N MILWAUKEE AVE ,CHICAGO,IL,60641.0,41.9456894748512,-87.734906027346,2024-11-19,Complaint,Pass w/ Conditions,0.0,0.0,0.0,57.395058,-13.498904,True,16.0,IRVING PARK
2607675,1305900.0,J & J FISH,J & J FISH,Restaurant,Risk 2 (Medium),26 E ADAMS ST ,CHICAGO,IL,60603.0,41.8796122138705,-87.6267857788647,2024-11-19,Canvass,Pass,0.0,1.0,0.0,-27.40981,-53.89669,True,32.0,LOOP
2607671,31782.0,CROATIAN CULTURAL CENTER OF CHICAGO,CROATIAN CULTURAL CENTER OF CHICAGO,Restaurant,Risk 1 (High),2845 W DEVON AVE,CHICAGO,IL,60659.0,41.9974197150081,-87.7014226815792,2024-11-19,Canvass,Fail,1.0,0.0,1.0,58.27032,31.852238,True,2.0,WEST RIDGE
2607665,2840545.0,DEEP PURPL,DEEP PURPL,Restaurant,Risk 2 (Medium),1137 W SHERIDAN RD ,CHICAGO,IL,60660.0,41.9980844531372,-87.6599719169538,2024-11-19,Canvass,Fail,1.0,0.0,1.0,9.3785925,-6.3637314,True,77.0,EDGEWATER
2607664,2809029.0,DAVE'S HOT CHICKEN,DAVE'S HOT CHICKEN,Restaurant,Risk 1 (High),3643 N WESTERN AVE ,CHICAGO,IL,60618.0,41.948007663086,-87.6881477706743,2024-11-19,Canvass,Pass w/ Conditions,0.0,0.0,0.0,72.790764,-18.885263,True,5.0,NORTH CENTER
2607662,4067292.0,FANNIE EMMANUEL APARTMENTS,FANNIE EMMANUEL APARTMENTS,Golden Diner,Risk 1 (High),3916 W WASHINGTON BLVD ,CHICAGO,IL,60624.0,41.8819692863712,-87.7239926128236,2024-11-19,Canvass,Pass,0.0,1.0,0.0,-31.965061,-47.760384,True,26.0,WEST GARFIELD PARK
2607661,2631932.0,LA CELIA LATIN KITCHEN,LA CELIA,Restaurant,Risk 1 (High),2890 N MILWAUKEE AVE ,CHICAGO,IL,60618.0,41.9337743838421,-87.7153508541476,2024-11-19,Canvass,Fail,1.0,0.0,1.0,-19.214672,4.711743,True,21.0,AVONDALE
2607659,54753.0,LAGANINI,LAGANINI,Restaurant,Risk 1 (High),4768 N LINCOLN AVE ,CHICAGO,IL,60625.0,41.968308771943,-87.6885360040619,2024-11-19,Canvass,Pass,0.0,1.0,0.0,-36.029324,-37.48815,True,4.0,LINCOLN SQUARE
2607657,2841304.0,SHERIDAN VILLAGE NURSING AND REHABILITATION,SHERIDAN VILLAGE NURSING AND REHABILITATION,Long Term Care,Risk 1 (High),5838 N SHERIDAN RD ,CHICAGO,IL,60660.0,41.988468090343,-87.6554850124985,2024-11-19,Canvass,Pass,0.0,1.0,0.0,-42.033756,-37.643906,True,77.0,EDGEWATER
2607656,1187.0,SADDLE AND CYCLE CLUB,SADDLE AND CYCLE CLUB,Restaurant,Risk 1 (High),900 W FOSTER AVE,CHICAGO,IL,60640.0,41.9765417315816,-87.6526576399587,2024-11-19,Canvass,Fail,1.0,0.0,1.0,65.5896,11.782471,True,77.0,EDGEWATER
2607660,2293013.0,KOKO'S MEDITERRANEAN GRILL,KOKO'S MEDITERRANEAN GRILL,Restaurant,Risk 1 (High),1760 W CHICAGO AVE,CHICAGO,IL,60622.0,41.896102672847,-87.6721159499253,2024-11-19,Canvass,Pass w/ Conditions,0.0,0.0,0.0,39.30266,5.833698,True,24.0,WEST TOWN
2607655,2252998.0,7 ELEVEN #33854B,7-ELEVEN,Grocery Store,Risk 2 (Medium),645 N STATE ST ,CHICAGO,IL,60654.0,41.8938190484226,-87.6279782977746,2024-11-19,Canvass,Fail,1.0,0.0,1.0,69.88561,2.4104927,True,8.0,NEAR NORTH SIDE
2607653,1874058.0,STAR LIGHT FOOD MARKET,STAR LIGHT FOOD MARKET,Grocery Store,Risk 1 (High),211 W 22ND PL ,CHICAGO,IL,60616.0,41.8520525197972,-87.6325052811209,2024-11-19,Canvass,Pass w/ Conditions,0.0,0.0,0.0,37.666447,28.873907,True,34.0,ARMOUR SQUARE
2607651,1845672.0,POTBELLY SANDWICH WORKS,POTBELLY SANDWICH WORKS,Restaurant,Risk 1 (High),409 W WASHINGTON ST ,CHICAGO,IL,60606.0,41.883075960413,-87.6384125993618,2024-11-19,Canvass,Pass,0.0,1.0,0.0,-30.339804,-63.528183,True,28.0,NEAR WEST SIDE
2607658,1739186.0,SUBWAY,SUBWAY,Restaurant,Risk 1 (High),100 W 87TH ST,CHICAGO,IL,60620.0,41.7363738202763,-87.6272315645673,2024-11-19,Complaint Re-Inspection,Pass,0.0,1.0,0.0,-37.835957,-29.278215,True,44.0,CHATHAM
2607652,2840629.0,HAPPY MONDAY,,Restaurant,Risk 2 (Medium),30 E ADAMS ST ,CHICAGO,IL,60603.0,41.87961636954,-87.6266422443582,2024-11-19,Canvass,Pass w/ Conditions,0.0,0.0,0.0,68.12661,-17.25253,True,32.0,LOOP
2607647,2032864.0,CASA CAFE,CASA CAFE,Restaurant,Risk 1 (High),2025 S WESTERN AVE ,CHICAGO,IL,60608.0,41.8539235620582,-87.6855417972172,2024-11-19,Canvass,Pass,0.0,1.0,0.0,-26.607618,-31.711502,True,31.0,LOWER WEST SIDE
2607646,51992.0,PIZZA FRIENDLY PIZZA,PIZZA FRIENDLY PIZZA,Restaurant,Risk 1 (High),1039 N WESTERN AVE ,CHICAGO,IL,60622.0,41.9005279325909,-87.6868161338336,2024-11-19,Complaint,Pass,0.0,1.0,0.0,-8.767624,-53.45132,True,24.0,WEST TOWN
2607649,1141457.0,DUNKIN DONUTS,DUNKIN DONUTS (T3 HK FOODCOURT),Restaurant,Risk 2 (Medium),11601 W TOUHY AVE,CHICAGO,IL,60666.0,42.008750765998,-87.9068741340011,2024-11-19,Canvass,Fail,1.0,0.0,1.0,19.443647,47.311882,True,76.0,OHARE
2607650,2817600.0,BIG SAMS FOOD MART,BIG SAMS FOOD MART,Grocery Store,Risk 1 (High),133 E 75TH ST ,CHICAGO,IL,60619.0,41.7582084447493,-87.6200884401159,2024-11-19,Canvass,Pass,0.0,1.0,0.0,8.128903,-29.859076,True,69.0,GREATER GRAND CROSSING
2607645,2781095.0,ARMITAGE ALE HOUSE,ARMITAGE ALE HOUSE,Restaurant,Risk 1 (High),1000 W ARMITAGE AVE ,CHICAGO,IL,60614.0,41.9182138798989,-87.6534219753844,2024-11-19,Canvass Re-Inspection,Pass,0.0,1.0,0.0,-47.790585,22.829697,True,7.0,LINCOLN PARK
2607641,1979845.0,RESERVOIR,RESERVOIR,Restaurant,Risk 1 (High),844 W MONTROSE AVE ,CHICAGO,IL,60613.0,41.9619266435997,-87.6517203067493,2024-11-19,Canvass,Pass,0.0,1.0,0.0,37.971268,-34.317223,True,3.0,UPTOWN
2607640,2923803.0,BITTERSWEET,BITTERSWEET,Restaurant,Risk 1 (High),2019 S LAFLIN ST ,CHICAGOO,IL,60608.0,41.8544934340306,-87.663529750908,2024-11-19,Canvass,Pass w/ Conditions,0.0,0.0,0.0,73.677185,-1.2893637,True,31.0,LOWER WEST SIDE
2607648,28476.0,WHITE CASTLE #25,WHITE CASTLE #25,Restaurant,Risk 2 (Medium),5618 W NORTH AVE,CHICAGO,IL,60639.0,41.9094808301572,-87.766410970375,2024-11-19,Complaint,Fail,1.0,0.0,1.0,-12.098448,47.48259,True,25.0,AUSTIN
2607638,2993562.0,VICKY'S,VICKY'S,Restaurant,Risk 1 (High),6632 N CLARK ST ,CHICAGO,IL,60626.0,42.0026282321879,-87.672328351294,2024-11-19,License,Pass w/ Conditions,0.0,0.0,0.0,36.222404,-5.0831327,True,1.0,ROGERS PARK
2607634,2766759.0,GO! GROCER,GO! GROCER,Grocery Store,Risk 2 (Medium),820 S MICHIGAN AVE ,CHICAGO,IL,60605.0,41.8715767088999,-87.6243095156687,2024-11-19,Canvass,Pass w/ Conditions,0.0,0.0,0.0,29.143364,33.239494,True,32.0,LOOP
2607632,2972518.0,MR. ED'S KITCHEN & MARKET,MR. ED'S KITCHEN & MARKET,Restaurant,Risk 2 (Medium),3720 W 16TH ST,CHICAGO,IL,60623.0,41.8590473585477,-87.7184112732726,2024-11-19,License,Pass,0.0,1.0,0.0,-27.235182,77.14692,True,29.0,NORTH LAWNDALE
2607631,11854.0,AUSTIN SENIOR CENTER,AUSTIN SENIOR CENTER,Golden Diner,Risk 1 (High),5071 W CONGRESS PKWY ,CHICAGO,IL,60644.0,41.8738711167077,-87.7520445327615,2024-11-19,Canvass,Pass,0.0,1.0,0.0,-59.400642,-31.283794,True,25.0,AUSTIN
2607630,1380524.0,LUCIANO'S GROCERY-18TH ST,LUCIANO'S GROCERY-18TH ST,Grocery Store,Risk 1 (High),1714 W 18TH ST ,CHICAGO,IL,60608.0,41.8578565675143,-87.6694195955633,2024-11-19,Canvass,Fail,1.0,0.0,1.0,61.67891,7.412546,True,31.0,LOWER WEST SIDE
2607628,2997737.0,OUR FOOD MART,OUR FOOD MART,Grocery Store,Risk 3 (Low),3901 N KEDZIE AVE ,CHICAGO,IL,60618.0,41.9522008883931,-87.7078220211701,2024-11-19,License,Pass,0.0,1.0,0.0,-2.537734,-31.599943,True,16.0,IRVING PARK
2607615,2977866.0,GUSTOS FOOD AND SWEETS,GUSTOS FOOD AND SWEETS,Restaurant,Risk 1 (High),1046 1/2 W ARGYLE ST ,CHICAGO,IL,60640.0,41.9733965092398,-87.6567987485594,2024-11-18,Complaint,Fail,1.0,0.0,1.0,49.35339,-20.1097,True,3.0,UPTOWN
2607613,2723703.0,DOMINOS PIZZA,DOMINOS PIZZA,Restaurant,Risk 2 (Medium),2101 E 71ST ST ,CHICAGO,IL,60649.0,41.7659900011406,-87.5737873366541,2024-11-18,Canvass,Pass w/ Conditions,0.0,0.0,0.0,60.14057,-12.287466,True,43.0,SOUTH SHORE
2607609,2938635.0,UPTOWN RESTAURANT,UPTOWN PIZZA & BBQ,Restaurant,Risk 1 (High),1031 W WILSON AVE ,CHICAGO,IL,60640.0,41.9653066026845,-87.6561179693684,2024-11-18,Canvass,Fail,1.0,0.0,1.0,13.698506,-20.932209,True,3.0,UPTOWN
2607606,2993273.0,MICKII'S,MICKII'S,Bakery,Risk 2 (Medium),1754 W LUNT AVE ,CHICAGO,IL,60626.0,42.0090887629181,-87.6743620758857,2024-11-18,License,Pass,0.0,1.0,0.0,-60.18428,16.455572,True,1.0,ROGERS PARK
2607611,2840813.0,JERK MAN,JERK MAN,Restaurant,Risk 1 (High),7723 S STATE ST ,CHICAGO,IL,60619.0,41.7538824906009,-87.6244827602242,2024-11-18,Complaint Re-Inspection,Pass w/ Conditions,0.0,0.0,0.0,-4.850006,-29.233814,True,69.0,GREATER GRAND CROSSING
2607605,2929766.0,MS KU'S FLOWERS AND DESERTS,MS KU'S FLOWERS AND DESERTS,Bakery,Risk 2 (Medium),2308 S ARCHER AVE ,CHICAGO,IL,60616.0,41.8508841129162,-87.6391895226703,2024-11-18,Canvass Re-Inspection,Pass,0.0,1.0,0.0,0.5893255,-0.11124116,True,34.0,ARMOUR SQUARE
2607604,2517495.0,ALLA VITA,ALLA VITA,Restaurant,Risk 1 (High),564 W RANDOLPH ST ,CHICAGO,IL,60661.0,41.8845433977378,-87.6423313867265,2024-11-18,Canvass,Pass w/ Conditions,0.0,0.0,0.0,34.421272,33.5465,True,28.0,NEAR WEST SIDE
2607616,2374778.0,COCOA & CO,COCOA + CO,Restaurant,Risk 2 (Medium),1651 N WELLS ST ,CHICAGO,IL,60614.0,41.9126271417816,-87.634608844045,2024-11-18,Canvass,Fail,1.0,0.0,1.0,32.07842,5.8021603,True,7.0,LINCOLN PARK
2607602,2405626.0,DUNKIN DONUTS AND BASKIN ROBBINS,DUNKIN DONUTS AND BASKIN ROBBINS,Restaurant,Risk 2 (Medium),2477 S ARCHER AVE,CHICAGO,IL,60616.0,41.8475580501644,-87.6454959916825,2024-11-18,Canvass,Fail,1.0,0.0,1.0,59.96428,6.6155505,True,60.0,BRIDGEPORT
2607598,2368976.0,DUNKIN DONUTS,DUNKIN DONUTS,Restaurant,Risk 2 (Medium),10 W CHICAGO AVE ,CHICAGO,IL,60654.0,41.8967814355278,-87.6286144572613,2024-11-18,Canvass,Pass w/ Conditions,0.0,0.0,0.0,73.71632,6.668138,True,8.0,NEAR NORTH SIDE
2607600,2646487.0,CAPTAIN HOOKS FISH & CHICKEN,CAPTAIN HOOKS FISH & CHICKEN,Restaurant,Risk 2 (Medium),343 E 103RD ST ,CHICAGO,IL,60628.0,41.7071922270379,-87.6145004650648,2024-11-18,Canvass,Fail,1.0,0.0,1.0,0.058196336,26.54941,True,49.0,ROSELAND
2607595,2088562.0,LULA CAFE,LULA CAFE,Restaurant,Risk 1 (High),2537-2543 N KEDZIE AVE ,CHICAGO,IL,60647.0,41.9276531960593,-87.7071190089373,2024-11-18,Canvass,Pass w/ Conditions,0.0,0.0,0.0,-37.489685,17.180744,True,22.0,LOGAN SQUARE
2607593,2835784.0,BONILLAS BURGER BITE CORP.,BURGER BITE,Restaurant,Risk 2 (Medium),1500 W DEVON AVE,CHICAGO,IL,60660.0,41.9982178761322,-87.6680250536495,2024-11-18,Canvass,Fail,1.0,0.0,1.0,33.15375,9.035731,True,1.0,ROGERS PARK
2607587,28487.0,WHITE CASTLE #58,WHITE CASTLE #58,Restaurant,Risk 2 (Medium),10301 S MICHIGAN AVE ,CHICAGO,IL,60628.0,41.7071568616074,-87.6200704780511,2024-11-18,Short Form Complaint,Fail,1.0,0.0,1.0,-74.32585,6.991177,True,49.0,ROSELAND
2607584,1166484.0,DENNIS PIZZA GUZMAN,DENNIS PIZZA GUZMAN,Restaurant,Risk 1 (High),4030 W 26TH ST ,CHICAGO,IL,60623.0,41.8443430754992,-87.7259110098355,2024-11-18,Canvass,Pass,0.0,1.0,0.0,2.7309778,-21.769033,True,30.0,SOUTH LAWNDALE
2607583,2948034.0,MOMBO WINGS & BUBBLE TEA,MOMBO WINGS & BUBBLE TEA,Restaurant,Risk 1 (High),6214 N WESTERN AVE,CHICAGO,IL,60659.0,41.9945762297402,-87.6899271254286,2024-11-18,Canvass,Pass,0.0,1.0,0.0,41.556908,-34.94922,True,2.0,WEST RIDGE
2607580,1680146.0,STARBUCK COFFEE #10366,STARBUCK COFFEE #10366,Restaurant,Risk 2 (Medium),30 N LA SALLE ST ,CHICAGO,IL,60602.0,41.8826946686112,-87.6325314266606,2024-11-18,Canvass,Pass,0.0,1.0,0.0,-59.559036,22.479214,True,32.0,LOOP
2607579,2677617.0,PHO 888,PHO 888,Restaurant,Risk 1 (High),1137 W ARGYLE ST,CHICAGO,IL,60640.0,41.973142758883,-87.6592771141937,2024-11-18,Complaint,Fail,1.0,0.0,1.0,-9.585548,62.271343,True,3.0,UPTOWN
2607576,1885084.0,LA PALAPA INC.,LA PALAPA,Restaurant,Risk 1 (High),2000 W 34TH ST ,CHICAGO,IL,60608.0,41.832315838153,-87.6753861678245,2024-11-18,Canvass,Pass,0.0,1.0,0.0,-16.13591,-32.903225,True,59.0,MCKINLEY PARK
2607575,2647666.0,CRUSHED PIZZERIA,CRUSHED PIZZERIA,Restaurant,Risk 1 (High),1607 W MONTROSE AVE ,CHICAGO,IL,60613.0,41.9614770150017,-87.6695710298029,2024-11-18,Canvass Re-Inspection,Pass,0.0,1.0,0.0,-89.019066,-16.795116,True,6.0,LAKE VIEW
2607578,2621876.0,JJ FISH & CHICKEN SOUTH CHICAGO,JJ FISH & CHICKEN SOUTH CHICAGO,Restaurant,Risk 2 (Medium),7100 S SOUTH CHICAGO AVE ,CHICAGO,IL,60619.0,41.7657167262945,-87.605584026987,2024-11-18,Canvass,Pass,0.0,1.0,0.0,11.338437,-30.561068,True,69.0,GREATER GRAND CROSSING
2607574,2997995.0,THE BREW PODCAST LLC,THE BREW PODCAST,Restaurant,Risk 1 (High),7101 S YATES BLVD,CHICAGO,IL,60649.0,41.7662763253935,-87.5663404247903,2024-11-18,License,Fail,1.0,0.0,1.0,5.207576,49.62624,True,43.0,SOUTH SHORE
2607572,2934728.0,TARY,TARY,Restaurant,Risk 1 (High),111 W ILLINOIS ST ,CHICAGO,IL,60654.0,41.8907047542451,-87.6316106616512,2024-11-18,Complaint,Fail,1.0,0.0,1.0,56.26807,8.459357,True,8.0,NEAR NORTH SIDE
2607570,2684364.0,CAMPESINO RESTAURANT,CAMPESINO RESTAURANT,Restaurant,Risk 1 (High),3207-3209 W LAWRENCE AVE,CHICAGO,IL,60625.0,41.968336274546,-87.7087827248332,2024-11-18,Canvass,Pass w/ Conditions,0.0,0.0,0.0,35.264465,23.958803,True,14.0,ALBANY PARK
2607568,2997000.0,"JJ FOOD MARKET, INC.","JJ FOOD MARKET, INC.",Grocery Store,Risk 2 (Medium),957 N DRAKE AVE ,CHICAGO,IL,60651.0,41.8989726839301,-87.7150618801607,2024-11-18,License Re-Inspection,Fail,1.0,0.0,1.0,22.18717,-29.952898,True,23.0,HUMBOLDT PARK
2607561,2712521.0,LARDON & THE UNION TAPROOM & THE MEADOWLARK,LARDON & THE UNION TAPROOM & THE MEADOWLARK,Restaurant,Risk 1 (High),2200-2202 N CALIFORNIA AVE ,CHICAGO,IL,60647.0,41.9217235142795,-87.6974684793587,2024-11-18,Canvass,Pass,0.0,1.0,0.0,-3.0870795,4.6633053,True,22.0,LOGAN SQUARE
2607566,2997675.0,CHICAGO BAR ASSOCIATION,CHICAGO BAR ASSOCIATION,Restaurant,Risk 2 (Medium),321 S PLYMOUTH CT,CHICAGO,IL,60604.0,41.8775935005027,-87.6285870601633,2024-11-18,License,Fail,1.0,0.0,1.0,5.693861,51.58686,True,32.0,LOOP
2607562,2510234.0,SCHNEIDER  SENIOR  APARTMENT,SCHNEIDER  SENIOR APARTMENT,Golden Diner,Risk 1 (High),1750 W PETERSON AVE ,CHICAGO,IL,60660.0,41.990891695235,-87.6736752307994,2024-11-18,Canvass,Fail,1.0,0.0,1.0,68.23875,27.417187,True,77.0,EDGEWATER
2607559,2550207.0,SPARK MONTESSORI,SPARK MONTESSORI,Children's Services Facility,Risk 1 (High),4326 N CALIFORNIA AVE ,CHICAGO,IL,60618.0,41.9602417722922,-87.6985799776619,2024-11-18,Canvass,Fail,1.0,0.0,1.0,63.66993,9.948481,True,16.0,IRVING PARK
2607560,2830779.0,REACH FOR THE STARS CHILDCARE ACADEMY INC,REACH FOR THE STARS CHILDCARE ACADEMY INC,Children's Services Facility,Risk 1 (High),4432 W MADISON ST,CHICAGO,IL,60624.0,41.8807055178556,-87.7368177820187,2024-11-18,Canvass,Fail,1.0,0.0,1.0,62.87761,31.879005,True,26.0,WEST GARFIELD PARK
2607558,2419012.0,"PARK VIEW REHAB CENTER, LLC","PARK VIEW REHAB CENTER, LLC",Long Term Care,Risk 1 (High),5888 N RIDGE AVE ,CHICAGO,IL,60660.0,41.9887703328086,-87.6687004234186,2024-11-18,Canvass,Fail,1.0,0.0,1.0,-4.2468047,-53.807384,True,77.0,EDGEWATER
2607557,2786181.0,EVERYBODY'S COFFEE,EVERYBODY'S COFFEE,Restaurant,Risk 1 (High),935-937 W WILSON AVE ,CHICAGO,IL,60640.0,41.9653347502108,-87.6537754698595,2024-11-18,Canvass,Pass,0.0,1.0,0.0,-2.2028577,35.43491,True,3.0,UPTOWN
2607556,2851292.0,CREPE & BEAN,CREPE & BEAN,Restaurant,Risk 2 (Medium),555 W MADISON ST ,CHICAGO,IL,60661.0,41.8817375162117,-87.6418080251031,2024-11-18,Canvass,Fail,1.0,0.0,1.0,-17.499886,41.147038,True,28.0,NEAR WEST SIDE
2607554,2133895.0,WILD HARE,WILD HARE,Restaurant,Risk 1 (High),2610 N HALSTED ST ,CHICAGO,IL,60614.0,41.9294620596915,-87.6490494780588,2024-11-18,Complaint,Fail,1.0,0.0,1.0,-3.600187,58.805893,True,7.0,LINCOLN PARK
2607552,2590079.0,WHIPPED & BEATEN CULINARY WORKS,GET IN THE KITCHEN! COOKING. WHILE. AWESOME.,COOKING SCHOOL,Risk 1 (High),3611-3617 N BROADWAY ,CHICAGO,IL,60613.0,41.9477317473086,-87.6473430320347,2024-11-18,Canvass,Pass,0.0,1.0,0.0,-71.36664,-2.830081,True,6.0,LAKE VIEW
2607551,2551778.0,"SOUTH SHORE MINI MART, INC",BP,Grocery Store,Risk 2 (Medium),7603-7643 S SOUTH CHICAGO AVE ,CHICAGO,IL,60619.0,41.7568558348046,-87.5928141734443,2024-11-18,Canvass,Pass,0.0,1.0,0.0,-28.285019,-8.945244,True,43.0,SOUTH SHORE
2607549,2038643.0,GOLDEN DINER,WEST TOWN SENIOR CENTER,Golden Diner,Risk 1 (High),1613 W CHICAGO AVE ,CHICAGO,IL,60622.0,41.8959548512792,-87.667821421818,2024-11-18,Canvass,Pass w/ Conditions,0.0,0.0,0.0,78.797966,12.335109,True,24.0,WEST TOWN
2607547,2179543.0,JACKALOPE COFFEE & TEA HOUSE,JACKALOPE COFFEE & TEA HOUSE,Restaurant,Risk 2 (Medium),753-755 W 32ND ST,CHICAGO,IL,60616.0,41.8361169835601,-87.6457701269918,2024-11-18,Canvass,Fail,1.0,0.0,1.0,15.506095,45.790287,True,60.0,BRIDGEPORT
2607548,2997860.0,GORDITAS ADRIAN'S 2,GORDITAS ADRIAN'S 2,Restaurant,Risk 1 (High),13507 S BRAINARD AVE ,CHICAGO,IL,60633.0,41.6493639920631,-87.5468534433004,2024-11-18,License,Fail,1.0,0.0,1.0,38.592194,-10.349556,True,55.0,HEGEWISCH
2607544,34157.0,"WOLFGANG PUCK, T1",WOLFGANG PUCK (T1 B7),Restaurant,Risk 1 (High),11601 W TOUHY AVE ,CHICAGO,IL,60666.0,42.008750765998,-87.9068741340011,2024-11-18,Canvass,Pass w/ Conditions,0.0,0.0,0.0,-14.50445,-7.2218857,True,76.0,OHARE
2607543,2886849.0,PEAR CHEF,PEAR CHEF,Restaurant,Risk 1 (High),170 W WASHINGTON ST ,CHICAGO,IL,60602.0,41.8833172608329,-87.6330242843001,2024-11-18,Complaint,Pass,0.0,1.0,0.0,14.683874,-60.855453,True,32.0,LOOP
2607546,2738557.0,"SUMMIT GROCERY ROGERS PARK, INC",SUMMIT GROCERY ROGERS PARK,Grocery Store,Risk 1 (High),7300 N ROGERS AVE,CHICAGO,IL,60626.0,42.0137736925998,-87.6803007317008,2024-11-18,Canvass,Fail,1.0,0.0,1.0,15.442332,33.45813,True,1.0,ROGERS PARK
2607542,2555480.0,STARBUCKS,STARBUCKS,Restaurant,Risk 2 (Medium),269 W CERMAK RD ,CHICAGO,IL,60616.0,41.8527423946783,-87.6346947686571,2024-11-18,Canvass Re-Inspection,Pass,0.0,1.0,0.0,17.5324,-61.481056,True,34.0,ARMOUR SQUARE
2607539,1356820.0,7-ELEVEN,7-ELEVEN,Grocery Store,Risk 2 (Medium),4500 W 63RD ST ,CHICAGO,IL,60629.0,41.7786249931406,-87.7350293641059,2024-11-18,Canvass,Pass,0.0,1.0,0.0,-35.756683,4.651404,True,65.0,WEST LAWN
2607540,2797777.0,MORA MIA - CAFE & SMOOTHIE BAR,MORA MIA - CAFE & SMOOTHIE BAR,Restaurant,Risk 1 (High),2436 S OAKLEY AVE ,CHICAGO,IL,60608.0,41.8474181600948,-87.6832110427539,2024-11-18,Canvass,Pass,0.0,1.0,0.0,-5.9463363,-39.83986,True,31.0,LOWER WEST SIDE
2607536,2570412.0,BON VIVANT CAKES LLC,BON VIVANT CAKES LLC,Bakery,Risk 2 (Medium),4749 N SPAULDING AVE ,CHICAGO,IL,60625.0,41.9680585890354,-87.7107635853105,2024-11-18,Canvass,Fail,1.0,0.0,1.0,-5.905029,16.19806,True,14.0,ALBANY PARK
2607535,2993699.0,JUST A DASH FOOD SERVICE GROUP,PERSPECTIVES LEADERSHIP CAMPUS,Restaurant,Risk 1 (High),8522 S LAFAYETTE AVE ,CHICAGO,IL,60620.0,41.7392330025461,-87.6256838706095,2024-11-18,License,Pass,0.0,1.0,0.0,-0.9434514,-47.45604,True,44.0,CHATHAM
2607534,2993030.0,C-DAWG'S BARBEQUE LLC,C-DAWG'S BARBEQUE LLC,Restaurant,Risk 1 (High),3146 E 133RD ST ,CHICAGO,IL,60633.0,41.6537886883286,-87.5464896320053,2024-11-18,License,Pass,0.0,1.0,0.0,51.111103,-33.849102,True,55.0,HEGEWISCH
2607532,1675893.0,ASOCIACION SOCIAL DEL AZUAY,ASOCIACION SOCIAL DEL AZUAY,BANQUET HALL,Risk 1 (High),3747-3751 W MONTROSE AVE,CHICAGO,IL,60618.0,41.9609066095901,-87.7223922767236,2024-11-18,Canvass Re-Inspection,Pass,0.0,1.0,0.0,-30.708843,11.44517,True,16.0,IRVING PARK
2607531,2993312.0,NORTH AVENUE FOOD AND GROCERY INC,NORTH AVENUE FOOD AND GROCERY INC,Grocery Store,Risk 2 (Medium),4737 W NORTH AVE ,CHICAGO,IL,60639.0,41.9095290577458,-87.7450805104932,2024-11-18,License Re-Inspection,Pass,0.0,1.0,0.0,26.269753,-22.476315,True,25.0,AUSTIN
2607530,2938353.0,GRACIE O'MALLEY'S,GRACIE O'MALLEY'S,Restaurant,Risk 1 (High),1633-1635 N MILWAUKEE AVE ,CHICAGO,IL,60647.0,41.9111534630338,-87.6784396504152,2024-11-15,Canvass,Pass,0.0,1.0,0.0,-52.938644,18.30339,True,24.0,WEST TOWN
2607529,2563496.0,Starbucks Coffee#51211,Starbucks Coffee,Restaurant,Risk 2 (Medium),506 N Milwaukee AVE ,,,60642.0,41.8913131488703,-87.6480086671157,2024-11-15,Canvass,Pass,0.0,1.0,0.0,51.42912,-55.454056,True,24.0,WEST TOWN
2607524,2179611.0,BROKEN ENGLISH TACO PUB - LINCOLN PARK,NEON GARDENS,Restaurant,Risk 1 (High),2574-2580 N LINCOLN AVE ,CHICAGO,IL,60614.0,41.9286926032038,-87.6535176808802,2024-11-15,Canvass,Fail,1.0,0.0,1.0,-12.941199,42.710987,True,7.0,LINCOLN PARK
2607528,2594983.0,WICKER PARK SEAFOOD & SUSHI,WICKER PARK SEAFOOD & SUSHI (T1-C1),Restaurant,Risk 1 (High),11601 W TOUHY AVE ,CHICAGO,IL,60666.0,42.008750765998,-87.9068741340011,2024-11-15,Canvass Re-Inspection,Pass,0.0,1.0,0.0,-23.243464,-51.678574,True,76.0,OHARE
2607527,2856522.0,GREATER BAKING LLC,GREATER BAKING,Bakery,Risk 2 (Medium),2300 E 71ST ST ,CHICAGO,IL,60649.0,41.7664135071691,-87.5697441682092,2024-11-15,Canvass,Pass w/ Conditions,0.0,0.0,0.0,75.11276,-18.046494,True,43.0,SOUTH SHORE
2607525,2647459.0,NAWAZ GULSHAN,NAWAZ GULSHAN,Restaurant,Risk 1 (High),6237 N WESTERN AVE ,CHICAGO,IL,60659.0,41.9952023748488,-87.6896532068021,2024-11-15,Complaint,Pass w/ Conditions,0.0,0.0,0.0,36.03819,20.348005,True,2.0,WEST RIDGE
2607521,2125165.0,"LUIGI'S PIZZA BY THE SLICE, INC",LUIGI'S PIZZA,Restaurant,Risk 1 (High),4212 W MADISON ST ,CHICAGO,IL,60624.0,41.8807697390537,-87.7311560969275,2024-11-15,Complaint Re-Inspection,Fail,1.0,0.0,1.0,57.339947,-8.260411,True,26.0,WEST GARFIELD PARK
2607523,2647185.0,PIZZA HUT # 35190,PIZZA HUT,Restaurant,Risk 1 (High),2516 W NORTH AVE ,CHICAGO,IL,60647.0,41.9103972573303,-87.6903669374144,2024-11-15,Canvass,Pass w/ Conditions,0.0,0.0,0.0,73.98562,-0.76904464,True,24.0,WEST TOWN
2607526,19444.0,OUTPUT WRIGLEYVILLE,OUTPUT WRIGLEYVILLE,Restaurant,Risk 1 (High),3718-3720 N CLARK ST,CHICAGO,IL,60613.0,41.9495336411084,-87.6585612230964,2024-11-15,Canvass,Fail,1.0,0.0,1.0,-28.417444,-0.86700827,True,6.0,LAKE VIEW
2607517,1445167.0,TAXIMAROA BAKERY,TAXIMAROA BAKERY,Bakery,Risk 2 (Medium),3954 W LAWRENCE AVE,CHICAGO,IL,60625.0,41.9683547568504,-87.7278133259932,2024-11-15,Canvass,Fail,1.0,0.0,1.0,-0.02344648,61.705116,True,14.0,ALBANY PARK
2607518,2997470.0,79TH FOOD & DELI,79TH FOOD & DELI,Restaurant,Risk 2 (Medium),857 E 79TH ST ,CHICAGO,IL,60619.0,41.7512032601125,-87.6028989789261,2024-11-15,License,Pass,0.0,1.0,0.0,-34.036255,13.280236,True,44.0,CHATHAM
2607511,2616796.0,ME-GA CARNITAS,ME-GA CARNITAS,Restaurant,Risk 1 (High),6336 S PULASKI RD ,CHICAGO,IL,60629.0,41.7775098361969,-87.7228789218408,2024-11-15,Canvass,Pass,0.0,1.0,0.0,-6.680074,-61.775967,True,65.0,WEST LAWN
2607510,2797138.0,ALOHA WAGON,HAWAIIAN CUISINE,Restaurant,Risk 1 (High),2023 S WESTERN AVE ,CHICAGO,IL,60608.0,41.8539927855,-87.6855426752951,2024-11-15,Canvass,Pass,0.0,1.0,0.0,-18.998255,5.7231965,True,31.0,LOWER WEST SIDE
2607508,1879666.0,PIZZA TANGO INC,PIZZA TANGO INC,Restaurant,Risk 1 (High),2859 W CERMAK RD ,CHICAGO,IL,60623.0,41.8517589791708,-87.6979435210975,2024-11-15,Canvass,Pass,0.0,1.0,0.0,53.22219,-54.322536,True,30.0,SOUTH LAWNDALE
2607516,2766874.0,DRIP BAKERY BY  CHEFCED,DRIP BAKERY BY CHEFCED,Bakery,Risk 2 (Medium),1844 W 95TH ST ,CHICAGO,IL,60643.0,41.7212315302444,-87.6693318070022,2024-11-15,Canvass,Pass,0.0,1.0,0.0,-56.715595,14.290965,True,72.0,BEVERLY
2607504,2943574.0,Paisanos Pizza & Wings,Paisanos Pizza & Wings,Restaurant,Risk 1 (High),3500 W MONTROSE AVE ,CHICAGO,IL,60618.0,41.9612081047538,-87.7156502729032,2024-11-15,Canvass,Pass,0.0,1.0,0.0,-90.419655,-16.509785,True,14.0,ALBANY PARK
2607503,2813544.0,JERUSALEM GRILL,JERUSALEM GRILL,Restaurant,Risk 1 (High),3142 N NARRAGANSETT AVE ,CHICAGO,IL,60634.0,41.9378011706711,-87.7860663920854,2024-11-15,Canvass Re-Inspection,Fail,1.0,0.0,1.0,67.55709,14.217623,True,19.0,BELMONT CRAGIN
2607501,2851420.0,DRW COLLEGE PREP,DRW COLLEGE PREP,School,Risk 1 (High),931 S HOMAN AVE ,CHICAGO,IL,60624.0,41.8693149650242,-87.7104899612539,2024-11-15,Canvass,Fail,1.0,0.0,1.0,1.8559093,49.65205,True,29.0,NORTH LAWNDALE
2607500,2817288.0,EL GUERRERENSE RESTAURANT,EL GUERRERENSE RESTAURANT,Restaurant,Risk 1 (High),5058 W ARMITAGE AVE,CHICAGO,IL,60639.0,41.9169542932207,-87.7533150880259,2024-11-15,Canvass,Fail,1.0,0.0,1.0,23.037848,24.697058,True,19.0,BELMONT CRAGIN
2607493,1443178.0,D'ABSOLUTE RESTAURANT & CATERING,D'ABSOLUTE RESTAURANT & CATERING,Catering,Risk 1 (High),5106 W IRVING PARK RD,CHICAGO,IL,60641.0,41.9534352546088,-87.7549904327267,2024-11-15,Canvass,Pass,0.0,1.0,0.0,-20.868504,8.494432,True,15.0,PORTAGE PARK
2607498,1887750.0,CITY SUITES HOTEL,CITY SUITES HOTEL,Restaurant,Risk 2 (Medium),933 W BELMONT AVE ,CHICAGO,IL,60657.0,41.939818918804,-87.6528197059893,2024-11-15,Canvass,Pass,0.0,1.0,0.0,-27.164576,79.0719,True,6.0,LAKE VIEW
2607485,2578260.0,POPEYES,POPEYES,Restaurant,Risk 1 (High),11350 S HALSTED ST ,CHICAGO,IL,60628.0,41.6872169272764,-87.6423646216907,2024-11-15,Canvass,Pass,0.0,1.0,0.0,-19.782213,-25.363201,True,75.0,MORGAN PARK
2607484,1579825.0,Pat's Pizzeria,Pat's Pizzeria,Restaurant,Risk 1 (High),2679 N LINCOLN AVE ,CHICAGO,IL,60614.0,41.9307567600478,-87.6559784166489,2024-11-15,Complaint,Fail,1.0,0.0,1.0,62.873047,31.35133,True,7.0,LINCOLN PARK
2607482,1963537.0,"LITTLE CAESAR ENTERPRISES, INC.","LITTLE CAESAR ENTERPRISES, INC.",Restaurant,Risk 2 (Medium),7963 S CICERO AVE ,CHICAGO,IL,60652.0,41.7478393181217,-87.7411571359321,2024-11-15,Complaint,Fail,1.0,0.0,1.0,9.685042,50.934402,True,70.0,ASHBURN
2607480,2363760.0,FRONTERA TORTAS BY RICK  BAYLESS,FRONTERA TORTAS BY RICK BAYLESS (T1-B11),Restaurant,Risk 1 (High),11601 W TOUHY AVE ,CHICAGO,IL,60666.0,42.008750765998,-87.9068741340011,2024-11-15,Canvass,Pass w/ Conditions,0.0,0.0,0.0,67.3043,10.338514,True,76.0,OHARE
2607477,48878.0,TAQUERIA  LA ZACATECANA,TAQUERIA  LA ZACATECANA,Restaurant,Risk 1 (High),3024 N CALIFORNIA AVE,CHICAGO,IL,60618.0,41.9366096667098,-87.6978930126664,2024-11-15,Canvass,Fail,1.0,0.0,1.0,49.37014,-21.447174,True,21.0,AVONDALE
2607478,2872783.0,AFUSION,AFUSION,Restaurant,Risk 1 (High),3465 S MORGAN ST ,CHICAGO,IL,60608.0,41.8307917804616,-87.6508224532278,2024-11-15,Canvass Re-Inspection,Pass,0.0,1.0,0.0,-22.281733,-51.791687,True,60.0,BRIDGEPORT
2607476,2846174.0,BIRRIERIA APATZINGAN,BIRRIERIA APATZINGAN,Restaurant,Risk 1 (High),4228 W 26TH ST,CHICAGO,IL,60623.0,41.8442785563759,-87.7305722654462,2024-11-15,Canvass,Pass,0.0,1.0,0.0,-27.315739,77.15861,True,30.0,SOUTH LAWNDALE
2607473,2221574.0,GARFIELD PARK HOSPITAL,GARFIELD PARK HOSPITAL,Hospital,Risk 1 (High),520 N RIDGEWAY AVE ,CHICAGO,IL,60624.0,41.8905692259343,-87.719983875788,2024-11-15,Canvass,Pass,0.0,1.0,0.0,-59.572468,-31.819504,True,23.0,HUMBOLDT PARK
2607474,2978006.0,FOXTROT MARKET,FOXTROT MARKET,Restaurant,Risk 2 (Medium),401 N WELLS ST,CHICAGO,IL,60610.0,41.8892152217568,-87.6338644008195,2024-11-15,License,Pass w/ Conditions,0.0,0.0,0.0,0.9798288,47.167416,True,8.0,NEAR NORTH SIDE
2607471,2652767.0,PILOT PROJECT,PILOT PROJECT,Restaurant,Risk 1 (High),2140 N MILWAUKEE AVE ,CHICAGO,IL,60647.0,41.9199933481762,-87.6928266939125,2024-11-15,Canvass,Pass,0.0,1.0,0.0,-22.213186,6.3846083,True,22.0,LOGAN SQUARE
2607470,2632293.0,J J FISH & CHICKEN,J J FISH & CHICKEN,Restaurant,Risk 2 (Medium),7908 S HALSTED ST ,CHICAGO,IL,60620.0,41.7503223874082,-87.6441824060583,2024-11-15,Canvass Re-Inspection,Pass,0.0,1.0,0.0,-4.8341494,-8.6575985,True,71.0,AUBURN GRESHAM
2607468,2918518.0,PASTA DI NAPOLI,PASTA DI NAPOLI,Restaurant,Risk 1 (High),4009 N ALBANY AVE ,CHICAGO,IL,60618.0,41.9542545968771,-87.7054365102804,2024-11-15,Canvass,Pass,0.0,1.0,0.0,-17.922962,-49.91166,True,16.0,IRVING PARK
2607467,2147714.0,COSTCO WHOLESALE # 1107,COSTCO WHOLESALE,Grocery Store,Risk 1 (High),1430 S ASHLAND AVE ,CHICAGO,IL,60608.0,41.8624024249274,-87.6664189681571,2024-11-15,Canvass,Fail,1.0,0.0,1.0,23.429314,45.924835,True,28.0,NEAR WEST SIDE
2607469,2704419.0,CHATHAM MEAT & GROCERY,CHATHAM MEAT & GROCERY,Grocery Store,Risk 2 (Medium),8211 S COTTAGE GROVE AVE,CHICAGO,IL,60619.0,41.7454253374232,-87.6049267213119,2024-11-15,Canvass,Pass,0.0,1.0,0.0,-23.255941,59.96201,True,44.0,CHATHAM
2607466,2997705.0,ROMA'S CHICAGO,ROMA'S CHICAGO,Restaurant,Risk 1 (High),4237 N CICERO AVE,CHICAGO,IL,60641.0,41.9581338522444,-87.7473041994786,2024-11-15,License,Pass,0.0,1.0,0.0,-19.811138,-22.706974,True,15.0,PORTAGE PARK
2607465,2753883.0,GOURMET DELI & SUBS,GOURMET DELI & SUBS,Restaurant,Risk 2 (Medium),12201-12209 S HALSTED ST,CHICAGO,IL,60628.0,41.6722695974314,-87.6415764808411,2024-11-15,Canvass,Fail,1.0,0.0,1.0,-3.458252,2.6326537,True,53.0,WEST PULLMAN
2607464,2762399.0,BEACON DOUGHNUTS,BEACON DOUGHNUTS,Bakery,Risk 2 (Medium),2008 N HALSTED ST ,CHICAGO,IL,60614.0,41.9184921377871,-87.648669094163,2024-11-15,Canvass,Pass w/ Conditions,0.0,0.0,0.0,71.526245,1.2277976,True,7.0,LINCOLN PARK
2607457,2215466.0,Carole Robertson Center for Learning,Carole Robertson Center for Learning,Daycare (Under 2 Years),Risk 1 (High),2929 W 19TH ST ,CHICAGO,IL,60623.0,41.8553789862807,-87.7004052199768,2024-11-15,Canvass,Pass,0.0,1.0,0.0,-32.138584,17.494135,True,30.0,SOUTH LAWNDALE
2607459,2146584.0,BATTER & BERRIES LLC,BATTER & BERRIES,Restaurant,Risk 1 (High),2748 N LINCOLN AVE ,CHICAGO,IL,60614.0,41.9316632092757,-87.6576694901462,2024-11-15,Complaint Re-Inspection,Pass,0.0,1.0,0.0,-71.124405,-33.6227,True,7.0,LINCOLN PARK
2607541,2993770.0,QUEEN K'S,QUEEN K'S,Restaurant,Risk 1 (High),7210 N CALIFORNIA AVE ,CHICAGO,IL,60645.0,42.0124282497474,-87.6998613549524,2024-11-15,License,Pass,0.0,1.0,0.0,-32.07893,-28.957687,True,2.0,WEST RIDGE
2607453,1475038.0,PAN BAGUETTE BAKERY,PAN BAGUETTE BAKERY,Bakery,Risk 2 (Medium),8325 S PULASKI RD,CHICAGO,IL,60652.0,41.7414327932367,-87.7215084713791,2024-11-15,Canvass,Pass w/ Conditions,0.0,0.0,0.0,80.61091,5.0584254,True,70.0,ASHBURN
2607452,2232511.0,FALCON FUEL & MINI MART,FALCON FUEL,Grocery Store,Risk 2 (Medium),7600-7606 S HALSTED ST,CHICAGO,IL,60620.0,41.7559957904814,-87.6443282388639,2024-11-15,Canvass Re-Inspection,Pass,0.0,1.0,0.0,-4.8270745,34.927124,True,71.0,AUBURN GRESHAM
2607454,2882700.0,TAMALERIA ROMAN,TAMALERIA ROMAN,Restaurant,Risk 1 (High),5054 W Armitage AVE ,CHICAGO,IL,60639.0,41.9169551042892,-87.7531462159792,2024-11-15,Canvass,Fail,1.0,0.0,1.0,63.43227,30.687874,True,19.0,BELMONT CRAGIN
2607451,1479959.0,CITY FRESH MARKET,CITY FRESH MARKET,Grocery Store,Risk 1 (High),3201 W DEVON AVE,CHICAGO,IL,60659.0,41.9972784744174,-87.7094073571779,2024-11-15,Canvass,Pass w/ Conditions,0.0,0.0,0.0,-0.7778069,-17.833002,True,2.0,WEST RIDGE
2607450,2818273.0,UNITED CLUB,UNITED CLUB (T-1 B6),Restaurant,Risk 1 (High),11601 W TOUHY AVE ,CHICAGO,IL,60666.0,42.008750765998,-87.9068741340011,2024-11-15,Canvass,Pass,0.0,1.0,0.0,22.579796,12.295941,True,76.0,OHARE
2607445,1905245.0,FEYROUS PASTRIES,FEYROUS PASTRIES,Grocery Store,Risk 1 (High),4508-4510 N KEDZIE AVE ,CHICAGO,IL,60625.0,41.9633191594931,-87.7084599275707,2024-11-15,Canvass Re-Inspection,Fail,1.0,0.0,1.0,-12.554836,38.57679,True,14.0,ALBANY PARK
2607443,2872867.0,Matcha Cita,Matcha Cita,Restaurant,Risk 2 (Medium),648 N CLARK ST ,CHICAGO,IL,60654.0,41.8939169921746,-87.631331159419,2024-11-15,Canvass Re-Inspection,Pass w/ Conditions,0.0,0.0,0.0,70.657776,-13.39119,True,8.0,NEAR NORTH SIDE
2607441,1646198.0,"THREE STARS FOOD MARKET, INC.",THREE STARS FOOD MARKET,Grocery Store,Risk 2 (Medium),252-54 N KEDZIE AVE ,CHICAGO,IL,60612.0,41.885905570214,-87.7064121998245,2024-11-14,Canvass,Pass,0.0,1.0,0.0,26.726784,-19.340225,True,27.0,EAST GARFIELD PARK
2607440,2432644.0,CHIYA CHAI CAFE,CHIYA CHAI CAFE,Restaurant,Risk 1 (High),2770 N MILWAUKEE AVE,CHICAGO,IL,60647.0,41.9314488438802,-87.7115470882033,2024-11-14,Canvass,Pass,0.0,1.0,0.0,-49.789368,-11.823558,True,22.0,LOGAN SQUARE
2607438,2803687.0,SMALLCAKES CUPCAKERY AND CREAMERY,SMALL CAKES,Restaurant,Risk 2 (Medium),218 W WASHINGTON ST ,CHICAGO,IL,60606.0,41.8833193594393,-87.6344352547172,2024-11-14,Canvass,Pass,0.0,1.0,0.0,20.67582,-62.314247,True,32.0,LOOP
2607434,2079668.0,SHARKS FISH-CHICKEN,SHARKS FISH-CHICKEN,Restaurant,Risk 2 (Medium),250-252 E 35TH ST,CHICAGO,IL,60616.0,41.8311874046964,-87.6197876851651,2024-11-14,Canvass,Pass,0.0,1.0,0.0,14.955581,-29.318882,True,35.0,DOUGLAS
2607432,2997408.0,JORDYN'S JERK PALACE INC,JORDYN'S JERK PALACE INC,Restaurant,Risk 1 (High),10318 S HALSTED ST,CHICAGO,IL,60628.0,41.7063146378921,-87.6429617676665,2024-11-14,License Re-Inspection,Pass,0.0,1.0,0.0,-9.868647,60.293774,True,73.0,WASHINGTON HEIGHTS
